~VERSION INFORMATION
VERS.                   2.0                              : CWLS LOG ASCII STANDARD - VERSION 2.0
WRAP.                   NO                               : ONE LINE PER DEPTH STEP
PHXV.                   1.8.1.1                          : PhoenixLAS Generator Version
VDAT.                   03/27/2019 09:05:43              : PhoenixLAS Build Date
~WELL INFORMATION
#MNEM.UNIT              DATA                             DESCRIPTION
#----- -----            ----------                       -----------------------
STRT    .M              212.00                           : START DEPTH
STOP    .M              1234.00                          : STOP DEPTH
STEP    .M              0.20                             : STEP
NULL    .               -999.25                          : NULL VALUE
WELL    .               CARDINAL 102 MHZ ALDERSON 3-36-17-11 W4M : Well Name
RIG     .               Bonanza-7                        : Rig Name
COMP    .               Cardinal Energy Ltd.             : Client Name
CTRY    .               CA                               : Country
LOC     .               03-01-018-11 W4                  : Surface Location
PROV    .               AB                               : Province
UWI     .               102/03-36-017-11W3/00            : Unique Well ID
DATE    .               11/01/2022 19:56:49              : Date
RIGTYPE .               Super Single                     : Rig Type
LICENSE .               0505900                          : WellLicence Number
SRVC    .               Phoenix Technology Service       : Service Company
FLD     .                                                : Field
~CURVE INFORMATION
#MNEM.UNIT              API CODES                        CURVE DESCRIPTION
#----- -----            ----------                       -----------------------
DEPT    .M              001                              : DEPTH
MG1C    .API                                             : Gamma Ray (Corrected)
DVER    .M              960                              : Hole TVD
ROPA    .M/HR                                            : Rate of Penetration
~OTHER
DRAFT
~A DEPT     MG1C        DVER        ROPA        
# ...
1196.00     103.94      963.42      50.17       
1196.20     100.13      963.44      53.80       
1196.40     100.13      963.46      57.93       
1196.60     97.84       963.48      56.70       
1196.80     97.84       963.51      54.79       
1197.00     94.03       963.53      56.08       
1197.20     91.74       963.55      56.88       
1197.40     99.37       963.58      57.25       
1197.60     93.27       963.60      61.02       
1197.80     94.03       963.62      62.18       
1198.00     95.56       963.64      4.90        
1198.20     89.46       963.66      27.34       
1198.40     84.88       963.69      51.29       
1198.60     86.41       963.71      94.22       
1198.80     84.88       963.73      109.09      
1199.00     88.70       963.75      123.62      
1199.20     82.60       963.77      129.94      
1199.40     88.70       963.79      136.25      
1199.60     87.93       963.81      146.06      
1199.80     87.93       963.83      153.54      
1200.00     87.93       963.86      160.83      
1200.20     87.93       963.87      166.08      
1200.40     87.93       963.90      29.55       
1200.60     85.65       963.92      57.33       
1200.80     83.36       963.94      46.25       
1201.00     82.98       963.96      49.59       
1201.20     82.60       963.97      52.55       
1201.40     82.60       964.00      55.58       
1201.60     82.60       964.01      56.47       
1201.80     81.07       964.04      55.65       
1202.00     79.93       964.06      55.18       
1202.20     78.78       964.07      55.32       
1202.40     78.78       964.10      55.58       
1202.60     78.53       964.11      55.43       
1202.80     78.27       964.13      54.62       
1203.00     78.02       964.15      54.77       
1203.20     76.50       964.16      55.47       
1203.40     76.50       964.19      56.17       
1203.60     74.21       964.21      73.32       
1203.80     71.16       964.22      68.21       
1204.00     69.44       964.25      64.33       
1204.20     67.73       964.26      62.63       
1204.40     66.01       964.28      63.23       
1204.60     64.30       964.29      64.60       
1204.80     60.48       964.31      66.11       
1205.00     61.63       964.33      65.20       
1205.20     62.77       964.35      63.15       
1205.40     66.58       964.37      59.93       
1205.60     71.92       964.39      57.96       
1205.80     78.02       964.40      59.44       
1206.00     86.41       964.42      63.60       
1206.20     94.79       964.44      63.78       
1206.40     104.71      964.45      63.79       
1206.60     129.11      964.47      61.78       
1206.80     131.39      964.49      20.55       
1207.00     138.26      964.50      25.84       
1207.20     136.73      964.52      15.20       
1207.40     126.82      964.54      24.23       
1207.60     111.57      964.55      31.85       
1207.80     92.51       964.57      35.59       
1208.00     94.03       964.58      37.61       
1208.20     95.56       964.60      43.61       
1208.40     93.27       964.62      42.96       
1208.60     87.17       964.63      45.62       
1208.80     88.70       964.64      46.52       
1209.00     87.17       964.66      40.79       
1209.20     82.60       964.68      41.88       
1209.40     81.07       964.69      38.20       
1209.60     71.16       964.71      40.48       
1209.80     66.58       964.72      48.67       
1210.00     56.67       964.74      59.90       
1210.20     50.57       964.75      58.84       
1210.40     56.67       964.77      48.94       
1210.60     78.02       964.78      33.62       
1210.80     87.17       964.80      30.06       
1211.00     106.99      964.81      25.38       
1211.20     101.66      964.83      20.99       
1211.40     97.84       964.84      14.33       
1211.60     97.46       964.85      17.89       
1211.80     97.08       964.87      27.76       
1212.00     94.79       964.88      20.79       
1212.20     90.22       964.90      30.45       
1212.40     86.41       964.91      27.15       
1212.60     82.85       964.92      27.04       
1212.80     79.29       964.94      35.56       
1213.00     75.73       964.95      13.74       
1213.20     69.63       964.97      47.62       
1213.40     66.33       964.98      75.13       
1213.60     63.03       964.99      99.06       
1213.80     59.72       965.00      115.06      
1214.00     55.91       965.02      128.65      
1214.20     49.81       965.03      139.48      
1214.40     48.67       965.05      147.68      
1214.60     47.52       965.05      150.09      
1214.80     42.95       965.07      152.50      
1215.00     42.18       965.08      155.93      
1215.20     41.42       965.09      158.15      
1215.40     40.66       965.11      160.20      
1215.60     37.61       965.12      162.30      
1215.80     37.10       965.13      164.92      
1216.00     36.59       965.15      165.83      
1216.20     36.09       965.16      165.51      
1216.40     36.85       965.17      165.19      
1216.60     36.59       965.18      163.89      
1216.80     36.34       965.19      159.74      
1217.00     36.09       965.20      157.09      
1217.20     36.85       965.21      154.44      
1217.40     37.61       965.23      148.29      
1217.60     36.85       965.23      144.30      
1217.80     36.34       965.25      144.33      
1218.00     35.83       965.26      151.58      
1218.20     35.32       965.27      158.83      
1218.40     37.61       965.29      167.12      
1218.60     37.61       965.29      169.11      
1218.80     37.61       965.30      171.10      
1219.00     36.85       965.31      170.50      
1219.20     37.61       965.32      167.70      
1219.40     37.61       965.34      152.39      
1219.60     37.61       965.35      137.88      
1219.80     35.32       965.36      124.06      
1220.00     32.27       965.37      120.76      
1220.20     68.11       965.38      15.75       
1220.40     -999.25     965.39      43.42       
1220.60     -999.25     -999.25     68.14       
1220.80     -999.25     -999.25     69.01       
1221.00     -999.25     -999.25     70.09       
1221.20     -999.25     -999.25     75.78       
1221.40     -999.25     -999.25     76.30       
1221.60     -999.25     -999.25     75.04       
1221.80     -999.25     -999.25     75.07       
1222.00     -999.25     -999.25     69.32       
1222.20     -999.25     -999.25     63.98       
1222.40     -999.25     -999.25     60.17       
1222.60     -999.25     -999.25     64.98       
1222.80     -999.25     -999.25     69.82       
1223.00     -999.25     -999.25     71.80       
1223.20     -999.25     -999.25     76.32       
1223.40     -999.25     -999.25     82.18       
1223.60     -999.25     -999.25     85.81       
1223.80     -999.25     -999.25     90.62       
1224.00     -999.25     -999.25     89.93       
1224.20     -999.25     -999.25     88.65       
1224.40     -999.25     -999.25     86.13       
1224.60     -999.25     -999.25     16.04       
1224.80     -999.25     -999.25     55.56       
1225.00     -999.25     -999.25     85.76       
1225.20     -999.25     -999.25     99.03       
1225.40     -999.25     -999.25     112.30      
1225.60     -999.25     -999.25     132.11      
1225.80     -999.25     -999.25     148.38      
1226.00     -999.25     -999.25     160.76      
1226.20     -999.25     -999.25     166.11      
1226.40     -999.25     -999.25     171.45      
1226.60     -999.25     -999.25     181.09      
1226.80     -999.25     -999.25     189.04      
1227.00     -999.25     -999.25     191.01      
1227.20     -999.25     -999.25     192.97      
1227.40     -999.25     -999.25     192.22      
1227.60     -999.25     -999.25     187.35      
1227.80     -999.25     -999.25     182.76      
1228.00     -999.25     -999.25     182.91      
1228.20     -999.25     -999.25     183.05      
1228.40     -999.25     -999.25     186.88      
1228.60     -999.25     -999.25     185.94      
