~VERSION INFORMATION
VERS.                   2.0                              : CWLS LOG ASCII STANDARD - VERSION 2.0
WRAP.                   NO                               : ONE LINE PER DEPTH STEP
PHXV.                   1.8.1.1                          : PhoenixLAS Generator Version
VDAT.                   03/27/2019 09:05:43              : PhoenixLAS Build Date
~WELL INFORMATION
#MNEM.UNIT              DATA                             DESCRIPTION
#----- -----            ----------                       -----------------------
STRT    .M              212.00                           : START DEPTH
STOP    .M              1234.00                          : STOP DEPTH
STEP    .M              0.20                             : STEP
NULL    .               -999.25                          : NULL VALUE
WELL    .               CARDINAL 102 MHZ ALDERSON 3-36-17-11 W4M : Well Name
RIG     .               Bonanza-7                        : Rig Name
COMP    .               Cardinal Energy Ltd.             : Client Name
CTRY    .               CA                               : Country
LOC     .               03-01-018-11 W4                  : Surface Location
PROV    .               AB                               : Province
UWI     .               102/03-36-017-11W3/00            : Unique Well ID
DATE    .               11/01/2022 19:56:49              : Date
RIGTYPE .               Super Single                     : Rig Type
LICENSE .               0505900                          : WellLicence Number
SRVC    .               Phoenix Technology Service       : Service Company
FLD     .                                                : Field
~CURVE INFORMATION
#MNEM.UNIT              API CODES                        CURVE DESCRIPTION
#----- -----            ----------                       -----------------------
DEPT    .M              001                              : DEPTH
MG1C    .API                                             : Gamma Ray (Corrected)
DVER    .M              960                              : Hole TVD
ROPA    .M/HR                                            : Rate of Penetration
~OTHER
DRAFT
~A DEPT     MG1C        DVER        ROPA        
# ...
1064.80     78.02       932.50      99.29       
1065.00     67.35       932.57      102.16      
1065.20     61.25       932.65      103.36      
1065.40     62.77       932.72      2.62        
1065.60     70.40       932.81      26.96       
1065.80     76.50       932.87      49.61       
1066.00     78.78       932.94      77.93       
1066.20     84.12       933.02      104.75      
1066.40     82.60       933.10      127.25      
1066.60     76.50       933.19      143.91      
1066.80     66.58       933.21      154.07      
1067.00     62.77       933.32      159.81      
1067.20     54.38       933.38      159.52      
1067.40     52.10       933.45      159.23      
1067.60     50.57       933.53      152.08      
1067.80     57.43       933.64      143.01      
1068.00     71.16       933.68      137.38      
1068.20     84.88       933.76      138.14      
1068.40     98.61       933.84      138.89      
1068.60     110.04      933.90      146.70      
1068.80     115.38      933.98      156.40      
1069.00     118.43      934.04      161.85      
1069.20     123.77      934.12      162.05      
1069.40     119.96      934.20      159.15      
1069.60     122.24      934.28      156.61      
1069.80     123.01      934.35      154.49      
1070.00     130.63      934.42      150.94      
1070.20     140.54      934.49      145.84      
1070.40     143.59      934.56      141.27      
1070.60     149.69      934.64      139.99      
1070.80     148.93      934.71      142.08      
1071.00     157.32      934.78      135.67      
1071.20     154.27      934.86      120.75      
1071.40     154.27      934.91      105.83      
1071.60     157.32      934.96      90.91       
1071.80     171.04      935.06      75.99       
1072.00     169.52      935.14      9.67        
1072.20     167.23      935.21      31.85       
1072.40     146.64      935.28      51.30       
1072.60     139.78      935.35      32.99       
1072.80     137.49      935.42      34.68       
1073.00     138.26      935.50      32.71       
1073.20     126.06      935.56      32.37       
1073.40     121.48      935.64      31.16       
1073.60     116.91      935.71      35.53       
1073.80     114.62      935.78      8.22        
1074.00     98.61       935.86      4.77        
1074.20     93.27       935.93      1.31        
1074.40     87.17       935.99      20.23       
1074.60     89.46       936.07      26.70       
1074.80     90.98       936.15      37.66       
1075.00     89.46       936.21      22.84       
1075.20     89.46       936.28      8.02        
1075.40     93.27       936.36      14.46       
1075.60     94.79       936.42      17.94       
1075.80     93.27       936.49      12.32       
1076.00     95.56       936.57      6.69        
1076.20     97.84       936.63      14.24       
1076.40     100.51      936.72      51.78       
1076.60     103.18      936.76      73.84       
1076.80     104.71      936.84      71.68       
1077.00     105.47      936.92      13.08       
1077.20     103.18      936.99      49.47       
1077.40     102.42      937.05      74.19       
1077.60     103.94      937.13      20.96       
1077.80     104.71      937.21      50.68       
1078.00     106.99      937.27      0.13        
1078.20     109.28      937.34      3.98        
1078.40     109.28      937.40      15.89       
1078.60     107.76      937.49      49.32       
1078.80     106.99      937.55      57.82       
1079.00     107.76      937.62      59.06       
1079.20     108.52      937.69      47.77       
1079.40     110.04      937.76      48.38       
1079.60     112.33      937.81      56.38       
1079.80     114.62      937.89      70.83       
1080.00     116.14      937.96      78.06       
1080.20     120.72      938.01      71.78       
1080.40     119.96      938.11      64.58       
1080.60     119.96      938.17      70.00       
1080.80     119.96      938.23      53.70       
1081.00     119.96      938.32      54.39       
1081.20     119.96      938.37      59.58       
1081.40     119.96      938.46      60.49       
1081.60     122.24      938.51      58.40       
1081.80     124.53      938.58      51.36       
1082.00     131.77      938.66      62.37       
1082.20     139.02      938.72      59.74       
1082.40     136.73      938.80      67.60       
1082.60     134.44      938.88      74.99       
1082.80     127.58      938.94      78.10       
1083.00     123.01      938.99      77.75       
1083.20     113.86      939.06      77.35       
1083.40     104.71      939.13      77.73       
1083.60     104.33      939.21      74.40       
1083.80     103.94      939.28      81.06       
1084.00     106.23      939.35      58.44       
1084.20     117.67      939.42      55.20       
1084.40     123.01      939.49      54.54       
1084.60     133.68      939.55      56.33       
1084.80     137.87      939.62      59.08       
1085.00     142.07      939.67      60.80       
1085.20     142.07      939.75      53.96       
1085.40     136.73      939.83      52.82       
1085.60     135.97      939.90      7.92        
1085.80     135.21      939.96      34.10       
1086.00     146.64      940.02      37.56       
1086.20     142.07      940.10      36.42       
1086.40     135.97      940.16      35.97       
1086.60     130.63      940.23      38.44       
1086.80     123.77      940.29      38.03       
1087.00     126.06      940.36      39.09       
1087.20     135.21      940.43      31.80       
1087.40     134.44      940.50      26.43       
1087.60     142.07      940.57      30.09       
1087.80     136.73      940.63      40.63       
1088.00     139.02      940.70      47.05       
1088.20     137.49      940.76      45.95       
1088.40     134.44      940.84      34.19       
1088.60     125.29      940.90      31.74       
1088.80     124.53      940.97      36.75       
1089.00     117.67      941.03      35.63       
1089.20     103.18      941.10      37.97       
1089.40     98.61       941.16      46.52       
1089.60     86.41       941.24      50.80       
1089.80     85.65       941.30      46.30       
1090.00     78.02       941.36      51.34       
1090.20     70.40       941.43      55.88       
1090.40     76.50       941.49      44.34       
1090.60     81.07       941.55      40.45       
1090.80     81.83       941.63      58.07       
1091.00     84.88       941.70      43.95       
1091.20     89.46       941.76      54.49       
1091.40     90.22       941.81      11.12       
1091.60     94.03       941.88      33.74       
1091.80     93.27       941.94      52.34       
1092.00     92.51       942.02      64.08       
1092.20     95.56       942.05      79.53       
1092.40     98.61       942.16      97.48       
1092.60     106.99      942.21      114.91      
1092.80     108.52      942.27      132.19      
1093.00     114.62      942.34      149.06      
1093.20     116.91      942.41      161.43      
1093.40     119.19      942.46      164.32      
1093.60     119.19      942.51      154.45      
1093.80     115.38      942.57      125.49      
1094.00     118.43      942.65      118.01      
1094.20     119.19      942.70      111.99      
1094.40     120.72      942.79      106.41      
1094.60     119.96      942.84      106.76      
1094.80     116.14      942.88      106.92      
1095.00     112.33      942.97      102.88      
1095.20     112.33      943.03      100.45      
1095.40     110.81      943.10      99.05       
1095.60     110.81      943.15      99.57       
1095.80     110.81      943.20      100.51      
1096.00     110.81      943.27      99.55       
1096.20     110.81      943.33      97.46       
1096.40     106.99      943.40      97.54       
1096.60     105.47      943.47      98.73       
1096.80     103.18      943.53      100.94      
1097.00     104.45      943.57      101.74      
1097.20     105.72      943.66      100.04      
1097.40     106.99      943.70      98.97       
