~VERSION INFORMATION
VERS.                   2.0                              : CWLS LOG ASCII STANDARD - VERSION 2.0
WRAP.                   NO                               : ONE LINE PER DEPTH STEP
PHXV.                   1.8.1.1                          : PhoenixLAS Generator Version
VDAT.                   03/27/2019 09:05:43              : PhoenixLAS Build Date
~WELL INFORMATION
#MNEM.UNIT              DATA                             DESCRIPTION
#----- -----            ----------                       -----------------------
STRT    .M              212.00                           : START DEPTH
STOP    .M              1234.00                          : STOP DEPTH
STEP    .M              0.20                             : STEP
NULL    .               -999.25                          : NULL VALUE
WELL    .               CARDINAL 102 MHZ ALDERSON 3-36-17-11 W4M : Well Name
RIG     .               Bonanza-7                        : Rig Name
COMP    .               Cardinal Energy Ltd.             : Client Name
CTRY    .               CA                               : Country
LOC     .               03-01-018-11 W4                  : Surface Location
PROV    .               AB                               : Province
UWI     .               102/03-36-017-11W3/00            : Unique Well ID
DATE    .               11/01/2022 19:56:49              : Date
RIGTYPE .               Super Single                     : Rig Type
LICENSE .               0505900                          : WellLicence Number
SRVC    .               Phoenix Technology Service       : Service Company
FLD     .                                                : Field
~CURVE INFORMATION
#MNEM.UNIT              API CODES                        CURVE DESCRIPTION
#----- -----            ----------                       -----------------------
DEPT    .M              001                              : DEPTH
MG1C    .API                                             : Gamma Ray (Corrected)
DVER    .M              960                              : Hole TVD
ROPA    .M/HR                                            : Rate of Penetration
~OTHER
DRAFT
~A DEPT     MG1C        DVER        ROPA        
# ...
671.20      160.37      669.30      66.14       
671.40      162.65      669.51      66.36       
671.60      167.23      669.70      70.31       
671.80      174.85      669.88      79.72       
672.00      171.04      670.07      85.52       
672.20      162.65      670.33      94.11       
672.40      158.08      670.46      96.77       
672.60      153.50      670.73      99.12       
672.80      152.74      670.86      99.41       
673.00      154.27      671.06      99.52       
673.20      161.13      671.25      100.01      
673.40      161.13      671.43      0.01        
673.60      161.13      671.64      3.65        
673.80      166.47      671.80      34.58       
674.00      164.94      671.96      58.19       
674.20      164.18      672.15      84.37       
674.40      163.42      672.35      107.19      
674.60      162.65      672.57      127.68      
674.80      161.89      672.80      143.94      
675.00      162.65      672.93      155.98      
675.20      160.37      673.14      160.31      
675.40      160.56      673.27      164.63      
675.60      160.75      673.50      170.94      
675.80      160.94      673.72      174.85      
676.00      161.13      673.89      176.75      
676.20      158.08      674.11      177.15      
676.40      154.65      674.21      177.55      
676.60      151.22      674.53      177.80      
676.80      145.12      674.74      172.81      
677.00      142.07      674.79      163.43      
677.20      142.83      675.03      153.71      
677.40      143.59      675.30      156.67      
677.60      167.23      675.37      166.82      
677.80      169.90      675.69      175.30      
678.00      172.57      675.83      170.77      
678.20      177.90      676.07      165.96      
678.40      173.33      676.10      161.14      
678.60      168.75      676.32      155.31      
678.80      164.18      676.54      156.23      
679.00      143.59      676.76      160.42      
679.20      145.12      676.97      163.49      
679.40      144.74      677.18      164.64      
679.60      144.36      677.29      164.38      
679.80      147.41      677.51      161.96      
680.00      147.41      677.68      20.11       
680.20      155.79      677.92      58.81       
680.40      157.32      678.07      60.24       
680.60      158.08      678.25      59.71       
680.80      158.84      678.45      66.27       
681.00      157.32      678.69      65.83       
681.20      159.60      678.88      67.84       
681.40      149.69      679.06      69.74       
681.60      146.64      679.23      65.96       
681.80      139.78      679.40      66.86       
682.00      138.26      679.58      65.99       
682.20      139.02      679.81      64.03       
682.40      139.78      679.97      58.97       
682.60      139.02      680.18      57.71       
682.80      143.59      680.35      57.68       
683.00      150.46      680.52      61.50       
683.20      167.23      680.72      66.97       
683.40      159.86      680.95      67.07       
683.60      152.49      681.10      59.16       
683.80      145.12      681.31      56.90       
684.00      137.11      681.46      55.56       
684.20      129.11      681.67      53.59       
684.40      130.63      681.89      53.75       
684.60      132.16      682.06      56.26       
684.80      129.87      682.26      54.70       
685.00      151.22      682.41      55.85       
685.20      168.75      682.61      60.32       
685.40      178.28      682.77      69.51       
685.60      187.82      683.02      68.49       
685.80      184.00      683.18      63.56       
686.00      163.42      683.37      16.41       
686.20      166.09      683.47      28.77       
686.40      168.75      683.73      74.72       
686.60      171.04      683.93      95.98       
686.80      173.33      684.12      110.64      
687.00      171.80      684.31      123.45      
687.20      171.04      684.51      133.88      
687.40      170.28      684.71      142.09      
687.60      169.52      684.85      148.15      
687.80      171.04      685.12      152.14      
688.00      170.28      685.25      156.14      
688.20      169.52      685.38      160.13      
688.40      171.04      685.65      164.83      
688.60      174.47      685.78      165.53      
688.80      177.90      685.99      163.66      
689.00      182.48      686.21      161.17      
689.20      187.05      686.46      162.24      
689.40      190.10      686.56      165.66      
689.60      193.15      686.75      169.09      
689.80      193.91      686.95      178.44      
690.00      194.68      687.16      184.55      
690.20      195.44      687.31      181.59      
690.40      193.92      687.56      172.73      
690.60      190.87      687.77      163.54      
690.80      187.82      687.88      161.59      
691.00      185.53      688.15      159.64      
691.20      179.43      688.18      157.69      
691.40      173.33      688.42      158.42      
691.60      174.66      688.63      160.12      
691.80      176.00      688.88      164.46      
692.00      177.33      689.00      167.78      
692.20      178.67      689.11      171.11      
692.40      180.57      689.33      178.31      
692.60      182.48      689.56      181.39      
692.80      188.32      689.82      181.96      
693.00      194.17      689.93      182.54      
693.20      200.02      690.15      183.11      
693.40      190.87      690.30      185.59      
693.60      156.55      690.46      15.07       
693.80      166.47      690.72      45.20       
694.00      151.22      690.83      66.32       
694.20      130.63      691.02      72.05       
694.40      129.87      691.22      76.50       
694.60      132.92      691.43      78.52       
694.80      128.34      691.62      80.64       
695.00      122.24      691.84      80.99       
695.20      119.19      691.97      81.35       
695.40      120.72      692.18      82.29       
695.60      125.29      692.35      83.74       
695.80      139.02      692.56      93.36       
696.00      158.84      692.72      99.68       
696.20      193.15      692.98      103.52      
696.40      195.44      693.09      103.31      
696.60      178.67      693.32      103.42      
696.80      143.59      693.53      105.53      
697.00      132.16      693.65      105.99      
697.20      120.72      693.81      106.15      
697.40      116.91      694.08      106.11      
697.60      116.91      694.22      105.93      
697.80      120.72      694.40      106.32      
698.00      122.24      694.62      107.65      
698.20      119.96      694.78      107.49      
698.40      120.72      694.91      107.04      
698.60      119.19      695.16      106.83      
698.80      124.53      695.32      107.21      
699.00      126.06      695.46      107.49      
699.20      125.29      695.68      107.56      
699.40      123.39      695.89      108.09      
699.60      121.48      696.07      3.77        
699.80      122.24      696.27      31.39       
700.00      131.39      696.46      53.47       
700.20      132.16      696.62      80.35       
700.40      132.92      696.83      106.38      
700.60      132.92      697.05      130.80      
700.80      134.82      697.19      140.83      
701.00      136.73      697.35      150.85      
701.20      135.97      697.56      165.47      
701.40      135.71      697.79      176.69      
701.60      135.46      697.93      181.15      
701.80      135.21      698.05      185.61      
702.00      134.44      698.32      193.02      
702.20      131.39      698.50      198.48      
702.40      130.63      698.74      200.37      
702.60      129.11      698.84      202.27      
702.80      127.58      699.00      204.81      
703.00      125.29      699.23      205.98      
703.20      123.01      699.40      207.14      
703.40      120.72      699.54      210.20      
703.60      121.48      699.82      211.68      
703.80      120.21      699.96      213.16      
