~VERSION INFORMATION
VERS.                   2.0                              : CWLS LOG ASCII STANDARD - VERSION 2.0
WRAP.                   NO                               : ONE LINE PER DEPTH STEP
PHXV.                   1.8.1.1                          : PhoenixLAS Generator Version
VDAT.                   03/27/2019 09:05:43              : PhoenixLAS Build Date
~WELL INFORMATION
#MNEM.UNIT              DATA                             DESCRIPTION
#----- -----            ----------                       -----------------------
STRT    .M              212.00                           : START DEPTH
STOP    .M              1234.00                          : STOP DEPTH
STEP    .M              0.20                             : STEP
NULL    .               -999.25                          : NULL VALUE
WELL    .               CARDINAL 102 MHZ ALDERSON 3-36-17-11 W4M : Well Name
RIG     .               Bonanza-7                        : Rig Name
COMP    .               Cardinal Energy Ltd.             : Client Name
CTRY    .               CA                               : Country
LOC     .               03-01-018-11 W4                  : Surface Location
PROV    .               AB                               : Province
UWI     .               102/03-36-017-11W3/00            : Unique Well ID
DATE    .               11/01/2022 19:56:49              : Date
RIGTYPE .               Super Single                     : Rig Type
LICENSE .               0505900                          : WellLicence Number
SRVC    .               Phoenix Technology Service       : Service Company
FLD     .                                                : Field
~CURVE INFORMATION
#MNEM.UNIT              API CODES                        CURVE DESCRIPTION
#----- -----            ----------                       -----------------------
DEPT    .M              001                              : DEPTH
MG1C    .API                                             : Gamma Ray (Corrected)
DVER    .M              960                              : Hole TVD
ROPA    .M/HR                                            : Rate of Penetration
~OTHER
DRAFT
~A DEPT     MG1C        DVER        ROPA        
# ...
999.20      71.16       905.81      95.31       
999.40      70.40       905.90      93.06       
999.60      69.63       905.98      89.79       
999.80      67.35       906.08      86.36       
1000.00     66.58       906.17      81.91       
1000.20     65.82       906.27      79.35       
1000.40     65.06       906.31      80.09       
1000.60     63.53       906.40      79.74       
1000.80     63.53       906.52      69.33       
1001.00     62.77       906.59      65.58       
1001.20     63.53       906.68      61.46       
1001.40     61.25       906.76      57.52       
1001.60     59.72       906.83      56.48       
1001.80     58.20       906.93      58.31       
1002.00     56.67       907.00      58.16       
1002.20     55.15       907.09      59.03       
1002.40     63.53       907.18      61.52       
1002.60     65.06       907.26      64.06       
1002.80     71.16       907.33      69.29       
1003.00     74.97       907.43      76.61       
1003.20     78.78       907.49      87.10       
1003.40     82.60       907.63      99.10       
1003.60     84.12       907.71      119.09      
1003.80     76.50       907.78      126.20      
1004.00     71.16       907.86      13.22       
1004.20     68.11       907.96      24.45       
1004.40     71.92       908.03      69.93       
1004.60     71.16       908.11      93.80       
1004.80     73.45       908.19      108.33      
1005.00     76.11       908.27      119.51      
1005.20     78.78       908.36      128.05      
1005.40     77.26       908.44      135.50      
1005.60     77.64       908.53      140.56      
1005.80     78.02       908.62      144.71      
1006.00     77.26       908.70      147.16      
1006.20     82.60       908.78      147.53      
1006.40     84.88       908.86      145.53      
1006.60     84.69       908.94      142.08      
1006.80     84.50       909.02      139.43      
1007.00     84.31       909.10      137.95      
1007.20     84.12       909.19      138.05      
1007.40     85.65       909.27      138.64      
1007.60     85.65       909.35      139.64      
1007.80     85.65       909.43      140.20      
1008.00     87.55       909.51      140.22      
1008.20     89.46       909.59      139.97      
1008.40     88.70       909.69      140.05      
1008.60     87.17       909.77      141.63      
1008.80     79.55       909.86      143.49      
1009.00     68.87       909.96      146.77      
1009.20     58.20       910.03      152.11      
1009.40     50.57       910.10      157.31      
1009.60     56.67       910.18      162.50      
1009.80     62.77       910.28      175.32      
1010.00     92.51       910.39      184.71      
1010.20     100.89      910.48      188.09      
1010.40     110.81      910.55      187.09      
1010.60     114.87      910.60      186.08      
1010.80     118.94      910.68      181.17      
1011.00     123.01      910.79      173.03      
1011.20     123.77      910.87      162.80      
1011.40     126.44      910.97      156.93      
1011.60     129.11      911.03      158.09      
1011.80     131.39      911.11      162.14      
1012.00     132.16      911.18      166.18      
1012.20     132.92      911.27      173.46      
1012.40     133.68      911.36      174.96      
1012.60     134.44      911.47      169.26      
1012.80     129.11      911.54      161.35      
1013.00     130.63      911.63      156.92      
1013.20     132.16      911.72      156.62      
1013.40     132.92      911.82      157.56      
1013.60     130.63      911.85      159.32      
1013.80     125.29      912.00      161.24      
1014.00     123.39      912.02      163.16      
1014.20     121.48      912.15      166.08      
1014.40     120.34      912.25      151.56      
1014.60     119.19      912.30      139.08      
1014.80     123.77      912.39      129.34      
1015.00     123.77      912.46      124.46      
1015.20     116.14      912.54      121.88      
1015.40     115.38      912.62      121.19      
1015.60     112.33      912.73      120.93      
1015.80     109.28      912.80      119.43      
1016.00     102.80      912.86      116.07      
1016.20     96.32       912.98      108.18      
1016.40     95.56       913.03      105.46      
1016.60     95.18       913.17      104.77      
1016.80     94.79       913.24      108.80      
1017.00     98.61       913.31      115.70      
1017.20     104.71      913.40      123.84      
1017.40     114.62      913.47      7.45        
1017.60     114.62      913.55      18.95       
1017.80     122.24      913.63      65.60       
1018.00     122.24      913.72      89.74       
1018.20     119.19      913.80      103.15      
1018.40     119.19      913.88      110.41      
1018.60     116.14      913.97      118.25      
1018.80     113.86      914.05      121.24      
1019.00     129.11      914.14      124.78      
1019.20     132.92      914.24      128.61      
1019.40     127.58      914.30      133.54      
1019.60     133.68      914.38      139.12      
1019.80     138.26      914.47      143.98      
1020.00     135.97      914.55      146.27      
1020.20     129.11      914.64      146.06      
1020.40     113.86      914.69      146.36      
1020.60     113.09      914.80      147.70      
1020.80     104.71      914.86      149.03      
1021.00     94.03       914.98      155.11      
1021.20     81.07       915.05      161.83      
1021.40     71.16       915.16      168.58      
1021.60     74.21       915.24      171.71      
1021.80     83.74       915.27      174.84      
1022.00     93.27       915.39      180.03      
1022.20     100.13      915.47      180.25      
1022.40     113.09      915.54      173.75      
1022.60     116.91      915.62      162.94      
1022.80     121.48      915.70      153.13      
1023.00     118.43      915.77      145.89      
1023.20     115.38      915.85      141.02      
1023.40     112.33      916.00      133.27      
1023.60     110.43      916.07      130.13      
1023.80     108.52      916.15      128.04      
1024.00     109.28      916.22      127.78      
1024.20     107.76      916.30      128.17      
1024.40     105.47      916.37      129.33      
1024.60     106.99      916.45      131.14      
1024.80     108.90      916.53      133.99      
1025.00     110.81      916.61      136.59      
1025.20     111.95      916.69      137.92      
1025.40     113.09      916.81      138.14      
1025.60     109.28      916.88      137.12      
1025.80     104.71      916.95      130.25      
1026.00     103.18      917.05      125.79      
1026.20     99.37       917.12      122.83      
1026.40     92.51       917.20      122.35      
1026.60     91.74       917.27      123.82      
1026.80     92.89       917.35      126.62      
1027.00     94.03       917.47      130.86      
1027.20     94.79       917.55      131.24      
1027.40     97.08       917.62      131.32      
1027.60     97.08       917.70      131.53      
1027.80     96.32       917.78      131.89      
1028.00     96.07       917.87      130.41      
1028.20     95.81       917.94      128.92      
1028.40     95.56       918.05      126.98      
1028.60     97.08       918.10      127.47      
1028.80     96.32       918.18      131.23      
1029.00     95.56       918.26      135.61      
1029.20     93.27       918.39      137.90      
1029.40     87.93       918.43      140.19      
1029.60     86.41       918.51      141.20      
1029.80     84.88       918.59      141.98      
1030.00     81.58       918.72      137.21      
1030.20     78.27       918.78      122.00      
1030.40     74.97       918.88      106.78      
1030.60     72.68       918.94      98.49       
1030.80     64.30       919.03      11.95       
1031.00     60.48       919.11      22.05       
1031.20     59.72       919.18      22.38       
1031.40     58.96       919.26      24.30       
1031.60     56.67       919.35      25.29       
1031.80     51.33       919.43      27.84       
