~VERSION INFORMATION
VERS.                   2.0                              : CWLS LOG ASCII STANDARD - VERSION 2.0
WRAP.                   NO                               : ONE LINE PER DEPTH STEP
PHXV.                   1.8.1.1                          : PhoenixLAS Generator Version
VDAT.                   03/27/2019 09:05:43              : PhoenixLAS Build Date
~WELL INFORMATION
#MNEM.UNIT              DATA                             DESCRIPTION
#----- -----            ----------                       -----------------------
STRT    .M              212.00                           : START DEPTH
STOP    .M              1234.00                          : STOP DEPTH
STEP    .M              0.20                             : STEP
NULL    .               -999.25                          : NULL VALUE
WELL    .               CARDINAL 102 MHZ ALDERSON 3-36-17-11 W4M : Well Name
RIG     .               Bonanza-7                        : Rig Name
COMP    .               Cardinal Energy Ltd.             : Client Name
CTRY    .               CA                               : Country
LOC     .               03-01-018-11 W4                  : Surface Location
PROV    .               AB                               : Province
UWI     .               102/03-36-017-11W3/00            : Unique Well ID
DATE    .               11/01/2022 19:56:49              : Date
RIGTYPE .               Super Single                     : Rig Type
LICENSE .               0505900                          : WellLicence Number
SRVC    .               Phoenix Technology Service       : Service Company
FLD     .                                                : Field
~CURVE INFORMATION
#MNEM.UNIT              API CODES                        CURVE DESCRIPTION
#----- -----            ----------                       -----------------------
DEPT    .M              001                              : DEPTH
MG1C    .API                                             : Gamma Ray (Corrected)
DVER    .M              960                              : Hole TVD
ROPA    .M/HR                                            : Rate of Penetration
~OTHER
DRAFT
~A DEPT     MG1C        DVER        ROPA        
# ...
933.60      52.86       873.87      57.22       
933.80      52.10       874.02      59.97       
934.00      51.33       874.12      63.27       
934.20      50.57       874.22      64.17       
934.40      52.10       874.32      66.28       
934.60      52.86       874.42      66.84       
934.80      53.62       874.53      66.75       
935.00      55.15       874.68      72.37       
935.20      56.67       874.79      82.76       
935.40      57.05       874.93      101.72      
935.60      57.43       874.96      115.20      
935.80      58.20       875.10      128.67      
936.00      60.10       875.26      159.30      
936.20      62.01       875.35      82.37       
936.40      70.40       875.44      5.44        
936.60      71.16       875.55      30.89       
936.80      65.06       875.67      67.91       
937.00      64.30       875.77      75.12       
937.20      68.87       875.87      80.82       
937.40      79.55       876.01      85.14       
937.60      83.36       876.09      93.99       
937.80      86.41       876.22      95.81       
938.00      86.41       876.30      92.88       
938.20      81.83       876.42      86.70       
938.40      81.07       876.55      86.55       
938.60      84.88       876.64      91.26       
938.80      83.36       876.74      94.51       
939.00      74.97       876.84      98.78       
939.20      73.45       876.94      110.30      
939.40      73.45       877.07      114.62      
939.60      68.87       877.16      116.53      
939.80      68.11       877.26      116.49      
940.00      64.30       877.40      15.00       
940.20      55.91       877.51      27.89       
940.40      57.43       877.58      52.54       
940.60      55.91       877.71      80.15       
940.80      56.67       877.86      104.07      
941.00      64.30       877.95      122.10      
941.20      67.35       878.04      138.41      
941.40      71.54       878.18      153.18      
941.60      75.73       878.25      159.92      
941.80      79.93       878.32      166.65      
942.00      84.12       878.48      178.76      
942.20      90.22       878.53      184.38      
942.40      90.60       878.64      189.99      
942.60      90.98       878.79      200.16      
942.80      93.27       878.89      206.92      
943.00      96.32       879.01      207.91      
943.20      96.32       879.13      208.89      
943.40      96.32       879.23      206.12      
943.60      99.12       879.37      201.18      
943.80      101.91      879.42      198.92      
944.00      104.71      879.51      196.66      
944.20      104.71      879.65      193.77      
944.40      103.56      879.79      191.80      
944.60      102.42      879.85      191.16      
944.80      103.18      879.93      190.52      
945.00      102.42      880.07      189.86      
945.20      101.66      880.19      188.94      
945.40      100.13      880.26      185.94      
945.60      97.84       880.38      177.88      
945.80      95.56       880.48      163.47      
946.00      93.27       880.62      121.44      
946.20      90.98       880.69      105.75      
946.40      87.17       880.78      99.14       
946.60      85.26       880.91      99.34       
946.80      83.36       881.03      96.30       
947.00      83.74       881.10      93.52       
947.20      84.12       881.23      89.04       
947.40      89.46       881.31      90.12       
947.60      90.98       881.43      94.70       
947.80      94.03       881.51      104.25      
948.00      94.99       881.62      117.72      
948.20      95.94       881.73      133.35      
948.40      96.89       881.85      146.38      
948.60      97.84       881.92      155.06      
948.80      100.89      882.04      159.84      
949.00      101.66      882.15      161.49      
949.20      102.42      882.26      163.13      
949.40      102.42      882.35      166.45      
949.60      103.18      882.48      171.49      
949.80      105.47      882.57      177.04      
950.00      101.66      882.67      19.05       
950.20      97.84       882.77      58.91       
950.40      97.08       882.87      47.91       
950.60      102.42      882.97      44.86       
950.80      101.66      883.06      43.96       
951.00      103.18      883.17      44.19       
951.20      102.42      883.26      46.24       
951.40      103.94      883.36      48.07       
951.60      101.66      883.47      49.99       
951.80      106.23      883.58      52.05       
952.00      111.57      883.69      52.84       
952.20      112.33      883.79      53.44       
952.40      116.91      883.89      50.97       
952.60      113.86      884.00      48.77       
952.80      110.43      884.11      45.82       
953.00      106.99      884.19      42.76       
953.20      100.13      884.30      38.34       
953.40      100.89      884.40      35.67       
953.60      98.61       884.50      36.65       
953.80      95.81       884.61      15.22       
954.00      93.02       884.73      48.19       
954.20      90.22       884.79      69.14       
954.40      91.74       884.94      88.87       
954.60      93.27       885.02      95.18       
954.80      94.41       885.13      104.27      
955.00      95.56       885.23      117.39      
955.20      100.13      885.28      132.34      
955.40      102.04      885.46      146.36      
955.60      103.94      885.53      150.83      
955.80      103.94      885.57      155.31      
956.00      103.94      885.68      158.90      
956.20      103.94      885.79      158.93      
956.40      106.23      885.91      158.65      
956.60      108.90      886.02      159.24      
956.80      111.57      886.13      160.51      
957.00      113.09      886.24      161.21      
957.20      113.86      886.36      161.33      
957.40      118.43      886.46      161.00      
957.60      120.72      886.52      160.87      
957.80      123.01      886.58      160.73      
958.00      128.34      886.69      160.41      
958.20      133.68      886.81      161.05      
958.40      139.78      886.90      163.64      
958.60      142.07      887.07      169.12      
958.80      144.36      887.13      172.59      
959.00      144.36      887.23      176.05      
959.20      143.59      887.32      182.01      
959.40      140.54      887.44      183.94      
959.60      135.97      887.56      183.19      
959.80      136.48      887.57      182.44      
960.00      136.98      887.70      179.70      
960.20      137.49      887.83      179.47      
960.40      145.12      887.92      181.53      
960.60      150.07      888.01      182.67      
960.80      155.03      888.09      183.81      
961.00      156.55      888.19      183.74      
961.20      157.32      888.32      180.67      
961.40      154.27      888.40      177.16      
961.60      152.74      888.51      176.37      
961.80      151.22      888.56      175.58      
962.00      149.69      888.69      177.78      
962.20      148.17      888.81      178.34      
962.40      138.26      888.90      175.25      
962.60      128.34      889.01      166.98      
962.80      121.48      889.11      160.61      
963.00      119.19      889.19      154.78      
963.20      110.81      889.31      150.95      
963.40      102.42      889.41      148.93      
963.60      89.46       889.50      27.63       
963.80      89.46       889.60      50.08       
964.00      89.46       889.69      44.50       
964.20      94.03       889.79      49.97       
964.40      94.79       889.88      53.10       
964.60      96.32       889.98      53.90       
964.80      100.13      890.09      53.75       
965.00      98.61       890.19      51.31       
965.20      95.56       890.27      50.34       
965.40      96.32       890.37      50.79       
965.60      91.74       890.47      50.67       
965.80      90.98       890.57      50.42       
966.00      85.65       890.67      50.05       
966.20      85.65       890.77      13.78       
