~VERSION INFORMATION
VERS.                   2.0                              : CWLS LOG ASCII STANDARD - VERSION 2.0
WRAP.                   NO                               : ONE LINE PER DEPTH STEP
PHXV.                   1.8.1.1                          : PhoenixLAS Generator Version
VDAT.                   03/27/2019 09:05:43              : PhoenixLAS Build Date
~WELL INFORMATION
#MNEM.UNIT              DATA                             DESCRIPTION
#----- -----            ----------                       -----------------------
STRT    .M              212.00                           : START DEPTH
STOP    .M              1234.00                          : STOP DEPTH
STEP    .M              0.20                             : STEP
NULL    .               -999.25                          : NULL VALUE
WELL    .               CARDINAL 102 MHZ ALDERSON 3-36-17-11 W4M : Well Name
RIG     .               Bonanza-7                        : Rig Name
COMP    .               Cardinal Energy Ltd.             : Client Name
CTRY    .               CA                               : Country
LOC     .               03-01-018-11 W4                  : Surface Location
PROV    .               AB                               : Province
UWI     .               102/03-36-017-11W3/00            : Unique Well ID
DATE    .               11/01/2022 19:56:49              : Date
RIGTYPE .               Super Single                     : Rig Type
LICENSE .               0505900                          : WellLicence Number
SRVC    .               Phoenix Technology Service       : Service Company
FLD     .                                                : Field
~CURVE INFORMATION
#MNEM.UNIT              API CODES                        CURVE DESCRIPTION
#----- -----            ----------                       -----------------------
DEPT    .M              001                              : DEPTH
MG1C    .API                                             : Gamma Ray (Corrected)
DVER    .M              960                              : Hole TVD
ROPA    .M/HR                                            : Rate of Penetration
~OTHER
DRAFT
~A DEPT     MG1C        DVER        ROPA        
# ...
408.80      161.13      408.80      189.95      
409.00      158.84      408.91      188.24      
409.20      156.55      409.17      186.90      
409.40      153.50      409.43      187.06      
409.60      150.07      409.69      187.82      
409.80      146.64      409.79      187.20      
410.00      137.87      409.93      186.58      
410.20      129.11      410.19      184.54      
410.40      135.21      410.46      183.22      
410.60      137.49      410.67      184.24      
410.80      136.73      410.73      185.25      
411.00      137.11      410.99      188.49      
411.20      137.49      411.20      13.51       
411.40      139.02      411.37      28.88       
411.60      138.64      411.54      50.62       
411.80      138.26      411.75      84.62       
412.00      137.87      412.00      117.13      
412.20      137.49      412.22      141.87      
412.40      137.11      412.40      151.16      
412.60      136.73      412.55      160.44      
412.80      136.54      412.79      175.27      
413.00      136.35      413.08      186.77      
413.20      136.16      413.20      191.24      
413.40      135.97      413.39      195.70      
413.60      133.30      413.68      203.35      
413.80      130.63      413.72      206.73      
414.00      132.16      414.01      210.12      
414.20      131.39      414.30      215.69      
414.40      130.63      414.31      217.41      
414.60      129.87      414.60      219.13      
414.80      129.11      414.80      219.94      
415.00      128.34      414.94      220.75      
415.20      129.36      415.26      222.39      
415.40      130.38      415.40      224.16      
415.60      131.39      415.58      225.92      
415.80      132.41      415.80      228.32      
416.00      133.43      415.92      230.71      
416.20      134.44      416.26      235.40      
416.40      137.49      416.40      237.04      
416.60      140.54      416.59      238.69      
416.80      143.59      416.74      239.99      
417.00      140.54      416.95      241.29      
417.20      141.69      417.30      243.55      
417.40      142.83      417.36      244.62      
417.60      144.36      417.64      245.69      
417.80      144.74      417.80      246.41      
418.00      145.12      417.98      247.13      
418.20      144.36      418.30      247.59      
418.40      144.51      418.31      248.05      
418.60      144.66      418.66      248.67      
418.80      144.81      418.80      249.20      
419.00      144.96      419.02      249.73      
419.20      145.12      419.22      250.50      
419.40      145.50      419.39      251.27      
419.60      145.88      419.51      252.08      
419.80      145.12      419.73      252.89      
420.00      144.35      420.07      253.77      
420.20      143.59      420.11      253.70      
420.40      145.12      420.41      253.62      
420.60      146.64      420.68      253.13      
420.80      147.02      420.76      252.63      
421.00      147.41      420.97      250.45      
421.20      144.36      421.26      248.73      
421.40      143.21      421.42      247.01      
421.60      142.07      421.55      244.77      
421.80      140.54      421.76      242.52      
422.00      139.02      421.94      234.94      
422.20      137.49      422.15      217.07      
422.40      135.97      422.40      192.70      
422.60      133.30      422.60      183.03      
422.80      130.63      422.75      173.36      
423.00      131.39      423.04      178.26      
423.20      132.16      423.20      188.93      
423.40      132.92      423.38      199.59      
423.60      129.87      423.53      215.03      
423.80      134.44      423.85      230.46      
424.00      134.44      423.93      11.41       
424.20      134.44      424.26      46.09       
424.40      134.44      424.38      78.75       
424.60      134.70      424.70      112.05      
424.80      134.95      424.80      124.81      
425.00      135.21      424.96      137.57      
425.20      135.97      425.23      156.40      
425.40      136.73      425.40      164.51      
425.60      137.49      425.53      172.62      
425.80      137.75      425.81      187.23      
426.00      138.00      426.00      193.60      
426.20      138.26      426.14      199.96      
426.40      138.26      426.43      210.46      
426.60      136.73      426.60      213.69      
426.80      135.21      426.75      216.92      
427.00      136.73      427.02      218.94      
427.20      133.30      427.20      217.95      
427.40      129.87      427.37      216.95      
427.60      122.24      427.60      212.97      
427.80      120.26      427.90      209.78      
428.00      118.28      428.00      209.06      
428.20      116.30      428.18      208.33      
428.40      114.31      428.50      209.31      
428.60      112.33      428.53      210.38      
428.80      105.47      428.78      211.44      
429.00      106.99      429.10      213.97      
429.20      108.52      429.20      215.01      
429.40      110.04      429.39      216.05      
429.60      110.43      429.60      216.87      
429.80      110.81      429.81      217.68      
430.00      110.81      430.01      219.23      
430.20      110.81      430.13      220.11      
430.40      115.38      430.42      220.99      
430.60      115.38      430.66      222.56      
430.80      115.38      430.74      223.36      
431.00      118.43      431.03      224.15      
431.20      119.80      431.27      224.97      
431.40      121.18      431.40      225.06      
431.60      122.55      431.57      225.15      
431.80      123.92      431.89      224.23      
432.00      125.29      431.96      223.81      
432.20      124.53      432.21      223.39      
432.40      125.04      432.50      223.27      
432.60      125.55      432.60      223.21      
432.80      126.06      432.81      223.14      
433.00      124.91      433.10      221.89      
433.20      123.77      433.19      220.37      
433.40      121.48      433.39      218.85      
433.60      119.19      433.51      215.78      
433.80      115.38      433.80      214.73      
434.00      113.86      433.98      213.68      
434.20      112.33      434.27      212.05      
434.40      109.28      434.43      211.22      
434.60      109.43      434.56      210.39      
434.80      109.59      434.85      208.59      
435.00      109.74      435.00      208.30      
435.20      109.89      435.14      208.00      
435.40      110.04      435.44      208.50      
435.60      115.38      435.66      209.19      
435.80      116.30      435.73      209.87      
436.00      117.21      436.02      211.37      
436.20      118.13      436.20      212.08      
436.40      119.04      436.34      212.79      
436.60      119.96      436.62      213.98      
436.80      122.24      436.89      115.10      
437.00      122.62      437.01      16.21       
437.20      123.01      437.17      35.63       
437.40      117.67      437.35      54.62       
437.60      116.14      437.60      71.06       
437.80      116.91      437.79      87.50       
438.00      115.00      437.97      120.82      
438.20      113.09      438.25      151.26      
438.40      112.84      438.40      161.59      
438.60      112.59      438.54      171.92      
438.80      112.33      438.82      187.20      
439.00      111.31      439.00      192.79      
439.20      110.30      439.12      198.38      
439.40      109.28      439.41      205.51      
439.60      110.81      439.60      207.40      
439.80      112.33      439.74      209.30      
440.00      116.91      440.01      212.12      
440.20      119.19      440.30      213.47      
440.40      121.10      440.34      214.81      
440.60      123.01      440.63      218.09      
440.80      122.62      440.80      219.60      
441.00      122.24      440.96      221.10      
441.20      121.86      441.25      222.99      
441.40      121.48      441.40      223.16      
