~VERSION INFORMATION
VERS.                   2.0                              : CWLS LOG ASCII STANDARD - VERSION 2.0
WRAP.                   NO                               : ONE LINE PER DEPTH STEP
PHXV.                   1.8.1.1                          : PhoenixLAS Generator Version
VDAT.                   03/27/2019 09:05:43              : PhoenixLAS Build Date
~WELL INFORMATION
#MNEM.UNIT              DATA                             DESCRIPTION
#----- -----            ----------                       -----------------------
STRT    .M              212.00                           : START DEPTH
STOP    .M              1234.00                          : STOP DEPTH
STEP    .M              0.20                             : STEP
NULL    .               -999.25                          : NULL VALUE
WELL    .               CARDINAL 102 MHZ ALDERSON 3-36-17-11 W4M : Well Name
RIG     .               Bonanza-7                        : Rig Name
COMP    .               Cardinal Energy Ltd.             : Client Name
CTRY    .               CA                               : Country
LOC     .               03-01-018-11 W4                  : Surface Location
PROV    .               AB                               : Province
UWI     .               102/03-36-017-11W3/00            : Unique Well ID
DATE    .               11/01/2022 19:56:49              : Date
RIGTYPE .               Super Single                     : Rig Type
LICENSE .               0505900                          : WellLicence Number
SRVC    .               Phoenix Technology Service       : Service Company
FLD     .                                                : Field
~CURVE INFORMATION
#MNEM.UNIT              API CODES                        CURVE DESCRIPTION
#----- -----            ----------                       -----------------------
DEPT    .M              001                              : DEPTH
MG1C    .API                                             : Gamma Ray (Corrected)
DVER    .M              960                              : Hole TVD
ROPA    .M/HR                                            : Rate of Penetration
~OTHER
DRAFT
~A DEPT     MG1C        DVER        ROPA        
# ...
736.80      118.43      729.92      98.52       
737.00      117.67      730.10      97.10       
737.20      111.57      730.27      94.87       
737.40      110.04      730.48      95.12       
737.60      106.23      730.63      96.84       
737.80      110.81      730.85      96.60       
738.00      111.95      730.96      94.65       
738.20      113.09      731.17      89.71       
738.40      116.14      731.37      84.78       
738.60      113.48      731.48      83.61       
738.80      110.81      731.71      86.30       
739.00      114.62      731.91      90.24       
739.20      115.38      732.04      91.18       
739.40      116.91      732.18      93.10       
739.60      116.14      732.41      94.58       
739.80      113.09      732.60      96.14       
740.00      111.57      732.77      99.56       
740.20      113.09      732.93      101.02      
740.40      110.81      733.10      105.01      
740.60      112.33      733.27      108.01      
740.80      110.81      733.46      110.73      
741.00      107.76      733.60      113.12      
741.20      104.71      733.80      0.14        
741.40      105.47      733.98      9.22        
741.60      106.23      734.11      29.94       
741.80      106.99      734.27      55.85       
742.00      107.76      734.54      86.61       
742.20      108.14      734.67      114.93      
742.40      108.52      734.88      138.43      
742.60      110.04      735.03      157.67      
742.80      111.57      735.27      164.81      
743.00      111.95      735.36      171.95      
743.20      112.33      735.60      182.90      
743.40      112.71      735.74      187.33      
743.60      113.09      735.96      191.76      
743.80      112.33      736.12      198.78      
744.00      111.57      736.20      201.58      
744.20      110.43      736.37      204.38      
744.40      109.28      736.65      208.95      
744.60      109.66      736.79      210.90      
744.80      110.04      736.90      212.86      
745.00      108.52      737.16      215.60      
745.20      108.52      737.32      216.16      
745.40      110.04      737.55      216.71      
745.60      110.81      737.68      216.98      
745.80      111.57      737.84      217.09      
746.00      112.33      737.98      217.20      
746.20      111.19      738.21      217.91      
746.40      110.04      738.38      214.47      
746.60      108.90      738.53      209.72      
746.80      107.76      738.63      204.97      
747.00      105.47      738.90      194.39      
747.20      107.76      739.12      193.00      
747.40      106.23      739.15      191.60      
747.60      104.71      739.40      6.73        
747.80      105.47      739.55      27.53       
748.00      106.23      739.74      57.97       
748.20      107.76      739.91      68.77       
748.40      107.76      740.10      75.85       
748.60      107.76      740.28      80.71       
748.80      110.04      740.40      82.45       
749.00      112.33      740.60      84.22       
749.20      114.62      740.80      84.23       
749.40      113.09      740.94      84.22       
749.60      110.04      741.09      83.59       
749.80      106.99      741.30      80.43       
750.00      106.99      741.51      84.14       
750.20      113.86      741.66      87.60       
750.40      119.96      741.79      91.88       
750.60      121.48      741.97      93.69       
750.80      118.69      742.21      97.75       
751.00      115.89      742.34      99.62       
751.20      113.09      742.46      101.44      
751.40      114.62      742.70      103.36      
751.60      116.14      742.83      103.13      
751.80      118.43      743.06      102.55      
752.00      119.96      743.20      103.39      
752.20      121.48      743.33      104.66      
752.40      119.96      743.59      107.22      
752.60      127.58      743.71      108.58      
752.80      129.11      743.86      109.77      
753.00      128.34      743.99      110.95      
753.20      128.34      744.26      112.57      
753.40      128.34      744.40      112.66      
753.60      125.29      744.60      112.17      
753.80      115.38      744.72      105.10      
754.00      111.57      744.88      86.72       
754.20      110.43      745.04      2.90        
754.40      109.28      745.20      22.79       
754.60      108.14      745.49      67.13       
754.80      106.99      745.54      91.33       
755.00      106.23      745.76      102.48      
755.20      103.69      745.84      113.62      
755.40      101.15      746.06      134.35      
755.60      98.61       746.28      152.39      
755.80      92.51       746.42      168.13      
756.00      87.93       746.66      174.66      
756.20      86.03       746.75      181.18      
756.40      84.12       746.98      190.50      
756.60      75.73       747.12      192.94      
756.80      73.19       747.21      195.38      
757.00      70.65       747.43      196.32      
757.20      68.11       747.65      194.36      
757.40      62.77       747.80      193.29      
757.60      60.48       747.88      192.21      
757.80      58.20       748.11      191.41      
758.00      55.91       748.33      192.78      
758.20      55.91       748.47      192.94      
758.40      55.15       748.69      189.33      
758.60      55.15       748.75      185.71      
758.80      55.15       748.91      184.08      
759.00      62.77       749.13      182.45      
759.20      68.30       749.30      182.24      
759.40      73.83       749.40      182.02      
759.60      79.35       749.61      183.01      
759.80      84.88       749.77      183.48      
760.00      94.03       749.98      183.95      
760.20      100.39      750.14      184.24      
760.40      106.74      750.27      184.52      
760.60      113.09      750.49      185.43      
760.80      117.67      750.64      186.13      
761.00      123.01      750.82      99.79       
761.20      113.86      751.00      13.46       
761.40      104.71      751.14      33.08       
761.60      110.04      751.30      60.43       
761.80      110.81      751.47      67.54       
762.00      111.57      751.64      71.18       
762.20      108.52      751.82      75.31       
762.40      106.23      751.97      80.55       
762.60      106.99      752.17      82.66       
762.80      106.23      752.29      87.11       
763.00      104.71      752.51      90.96       
763.20      106.23      752.68      96.99       
763.40      113.86      752.80      97.78       
763.60      114.24      753.04      99.56       
763.80      114.62      753.16      101.03      
764.00      118.43      753.31      102.34      
764.20      117.67      753.52      104.29      
764.40      114.62      753.65      105.69      
764.60      110.81      753.78      107.45      
764.80      106.99      754.02      109.04      
765.00      103.18      754.14      107.55      
765.20      102.42      754.26      105.45      
765.40      101.66      754.47      104.59      
765.60      102.42      754.64      106.29      
765.80      106.99      754.85      108.58      
766.00      107.76      755.03      111.92      
766.20      108.52      755.14      1.94        
766.40      109.28      755.28      16.51       
766.60      111.57      755.52      55.83       
766.80      110.81      755.66      79.19       
767.00      110.04      755.82      100.45      
767.20      111.57      755.94      118.82      
767.40      113.86      756.16      133.30      
767.60      112.71      756.35      143.68      
767.80      111.57      756.38      151.09      
768.00      104.71      756.60      155.17      
768.20      103.56      756.78      155.95      
768.40      102.42      756.90      156.72      
768.60      101.28      757.11      158.89      
768.80      100.13      757.29      164.66      
769.00      93.27       757.52      169.33      
769.20      92.25       757.54      173.99      
769.40      91.24       757.75      182.32      
