~VERSION INFORMATION
VERS.                   2.0                              : CWLS LOG ASCII STANDARD - VERSION 2.0
WRAP.                   NO                               : ONE LINE PER DEPTH STEP
PHXV.                   1.8.1.1                          : PhoenixLAS Generator Version
VDAT.                   03/27/2019 09:05:43              : PhoenixLAS Build Date
~WELL INFORMATION
#MNEM.UNIT              DATA                             DESCRIPTION
#----- -----            ----------                       -----------------------
STRT    .M              212.00                           : START DEPTH
STOP    .M              1234.00                          : STOP DEPTH
STEP    .M              0.20                             : STEP
NULL    .               -999.25                          : NULL VALUE
WELL    .               CARDINAL 102 MHZ ALDERSON 3-36-17-11 W4M : Well Name
RIG     .               Bonanza-7                        : Rig Name
COMP    .               Cardinal Energy Ltd.             : Client Name
CTRY    .               CA                               : Country
LOC     .               03-01-018-11 W4                  : Surface Location
PROV    .               AB                               : Province
UWI     .               102/03-36-017-11W3/00            : Unique Well ID
DATE    .               11/01/2022 19:56:49              : Date
RIGTYPE .               Super Single                     : Rig Type
LICENSE .               0505900                          : WellLicence Number
SRVC    .               Phoenix Technology Service       : Service Company
FLD     .                                                : Field
~CURVE INFORMATION
#MNEM.UNIT              API CODES                        CURVE DESCRIPTION
#----- -----            ----------                       -----------------------
DEPT    .M              001                              : DEPTH
MG1C    .API                                             : Gamma Ray (Corrected)
DVER    .M              960                              : Hole TVD
ROPA    .M/HR                                            : Rate of Penetration
~OTHER
DRAFT
~A DEPT     MG1C        DVER        ROPA        
# ...
1130.40     138.26      952.76      143.71      
1130.60     147.41      952.79      153.90      
1130.80     144.36      952.85      162.51      
1131.00     134.44      952.89      170.08      
1131.20     135.21      952.93      172.96      
1131.40     134.95      952.96      175.83      
1131.60     134.70      953.01      177.71      
1131.80     134.44      953.06      175.79      
1132.00     133.68      953.11      171.75      
1132.20     124.91      953.15      167.44      
1132.40     116.14      953.20      161.46      
1132.60     111.57      953.24      152.83      
1132.80     109.66      953.28      143.22      
1133.00     107.76      953.32      136.63      
1133.20     103.18      953.37      134.78      
1133.40     97.84       953.41      136.26      
1133.60     95.56       953.44      137.66      
1133.80     93.27       953.52      133.87      
1134.00     91.74       953.57      132.20      
1134.20     90.22       953.57      135.36      
1134.40     86.41       953.63      138.51      
1134.60     82.60       953.68      141.67      
1134.80     78.78       953.72      151.31      
1135.00     77.26       953.78      161.82      
1135.20     78.02       953.80      167.74      
1135.40     78.78       953.84      173.65      
1135.60     79.55       953.89      185.55      
1135.80     81.45       953.93      185.98      
1136.00     83.36       953.98      186.40      
1136.20     85.65       954.01      170.08      
1136.40     85.39       954.04      149.72      
1136.60     85.14       954.10      134.14      
1136.80     84.88       954.14      118.56      
1137.00     85.65       954.19      120.47      
1137.20     84.12       954.23      124.14      
1137.40     82.60       954.27      127.39      
1137.60     81.07       954.31      137.55      
1137.80     80.05       954.35      142.21      
1138.00     79.04       954.41      146.87      
1138.20     78.02       954.46      152.26      
1138.40     78.40       954.46      157.65      
1138.60     78.78       954.51      165.79      
1138.80     78.02       954.55      168.34      
1139.00     77.26       954.60      151.68      
1139.20     81.07       954.65      137.63      
1139.40     81.83       954.69      17.99       
1139.60     85.65       954.72      39.27       
1139.80     85.65       954.76      31.23       
1140.00     86.41       954.81      39.95       
1140.20     88.70       954.84      42.01       
1140.40     84.12       954.88      44.86       
1140.60     86.41       954.93      47.19       
1140.80     80.31       954.97      49.06       
1141.00     84.88       955.01      54.35       
1141.20     82.60       955.04      55.20       
1141.40     86.41       955.09      54.67       
1141.60     85.65       955.12      53.35       
1141.80     83.36       955.17      51.96       
1142.00     85.65       955.20      48.47       
1142.20     85.65       955.25      46.78       
1142.40     93.27       955.29      46.68       
1142.60     92.51       955.32      46.27       
1142.80     94.03       955.36      44.72       
1143.00     97.08       955.40      44.29       
1143.20     97.08       955.44      39.93       
1143.40     94.79       955.47      44.96       
1143.60     92.51       955.52      41.96       
1143.80     95.56       955.56      41.77       
1144.00     95.56       955.59      43.32       
1144.20     95.56       955.64      22.01       
1144.40     90.22       955.67      39.01       
1144.60     87.17       955.72      79.19       
1144.80     86.79       955.75      88.32       
1145.00     86.41       955.78      95.88       
1145.20     84.88       955.82      104.81      
1145.40     79.55       955.86      114.79      
1145.60     81.83       955.91      125.02      
1145.80     80.31       955.93      136.10      
1146.00     79.29       955.98      147.15      
1146.20     78.27       956.02      157.78      
1146.40     77.26       956.06      162.09      
1146.60     74.21       956.10      166.40      
1146.80     74.59       956.12      173.08      
1147.00     74.97       956.17      176.31      
1147.20     74.21       956.20      175.28      
1147.40     73.45       956.24      170.84      
1147.60     72.68       956.27      167.70      
1147.80     72.68       956.31      168.60      
1148.00     72.68       956.34      169.50      
1148.20     72.68       956.39      175.41      
1148.40     71.54       956.43      179.79      
1148.60     70.40       956.46      180.64      
1148.80     70.40       956.49      179.56      
1149.00     71.92       956.52      178.47      
1149.20     69.63       956.58      176.04      
1149.40     71.16       956.61      173.69      
1149.60     72.68       956.65      171.95      
1149.80     71.92       956.69      171.02      
1150.00     71.92       956.72      170.67      
1150.20     72.68       956.75      170.32      
1150.40     72.68       956.78      169.46      
1150.60     74.21       956.82      168.33      
1150.80     71.54       956.86      167.41      
1151.00     68.87       956.89      165.53      
1151.20     69.63       956.93      162.40      
1151.40     68.11       956.97      158.92      
1151.60     68.11       957.00      156.84      
1151.80     71.92       957.03      156.74      
1152.00     72.68       957.07      157.59      
1152.20     71.16       957.09      158.44      
1152.40     69.63       957.15      160.95      
1152.60     67.35       957.17      163.71      
1152.80     62.77       957.21      151.77      
1153.00     59.72       957.24      28.58       
1153.20     62.01       957.28      9.45        
1153.40     62.77       957.31      17.77       
1153.60     61.25       957.34      20.90       
1153.80     64.30       957.38      16.92       
1154.00     62.77       957.41      24.76       
1154.20     66.58       957.45      28.79       
1154.40     65.82       957.49      19.85       
1154.60     65.06       957.52      22.95       
1154.80     65.82       957.55      18.50       
1155.00     62.77       957.58      23.81       
1155.20     68.11       957.62      18.94       
1155.40     61.25       957.65      18.31       
1155.60     65.06       957.68      25.27       
1155.80     73.45       957.72      37.82       
1156.00     69.63       957.75      36.11       
1156.20     73.45       957.79      37.59       
1156.40     79.55       957.82      37.51       
1156.60     74.21       957.85      39.21       
1156.80     68.87       957.89      41.67       
1157.00     78.02       957.92      42.45       
1157.20     78.02       957.95      43.72       
1157.40     78.02       957.98      46.13       
1157.60     77.26       958.01      12.67       
1157.80     75.73       958.06      41.67       
1158.00     75.73       958.08      64.85       
1158.20     75.73       958.11      86.82       
1158.40     75.73       958.14      101.72      
1158.60     75.73       958.17      115.56      
1158.80     77.26       958.21      127.85      
1159.00     76.50       958.24      138.74      
1159.20     74.97       958.28      147.33      
1159.40     79.55       958.32      153.97      
1159.60     80.31       958.35      158.35      
1159.80     81.07       958.38      158.84      
1160.00     79.55       958.41      155.17      
1160.20     79.16       958.45      148.58      
1160.40     78.78       958.47      142.68      
1160.60     78.02       958.50      138.92      
1160.80     79.55       958.53      137.28      
1161.00     83.36       958.56      136.10      
1161.20     82.21       958.59      134.66      
1161.40     81.07       958.63      133.16      
1161.60     81.45       958.65      132.58      
1161.80     81.83       958.69      132.28      
1162.00     78.02       958.73      130.59      
1162.20     76.50       958.76      127.32      
1162.40     80.31       958.79      122.97      
1162.60     78.02       958.82      114.69      
1162.80     78.78       958.86      112.76      
1163.00     79.55       958.88      112.36      
