~VERSION INFORMATION
VERS.                   2.0                              : CWLS LOG ASCII STANDARD - VERSION 2.0
WRAP.                   NO                               : ONE LINE PER DEPTH STEP
PHXV.                   1.8.1.1                          : PhoenixLAS Generator Version
VDAT.                   03/27/2019 09:05:43              : PhoenixLAS Build Date
~WELL INFORMATION
#MNEM.UNIT              DATA                             DESCRIPTION
#----- -----            ----------                       -----------------------
STRT    .M              212.00                           : START DEPTH
STOP    .M              1234.00                          : STOP DEPTH
STEP    .M              0.20                             : STEP
NULL    .               -999.25                          : NULL VALUE
WELL    .               CARDINAL 102 MHZ ALDERSON 3-36-17-11 W4M : Well Name
RIG     .               Bonanza-7                        : Rig Name
COMP    .               Cardinal Energy Ltd.             : Client Name
CTRY    .               CA                               : Country
LOC     .               03-01-018-11 W4                  : Surface Location
PROV    .               AB                               : Province
UWI     .               102/03-36-017-11W3/00            : Unique Well ID
DATE    .               11/01/2022 19:56:49              : Date
RIGTYPE .               Super Single                     : Rig Type
LICENSE .               0505900                          : WellLicence Number
SRVC    .               Phoenix Technology Service       : Service Company
FLD     .                                                : Field
~CURVE INFORMATION
#MNEM.UNIT              API CODES                        CURVE DESCRIPTION
#----- -----            ----------                       -----------------------
DEPT    .M              001                              : DEPTH
MG1C    .API                                             : Gamma Ray (Corrected)
DVER    .M              960                              : Hole TVD
ROPA    .M/HR                                            : Rate of Penetration
~OTHER
DRAFT
~A DEPT     MG1C        DVER        ROPA        
212.00      47.52       212.03      7.95        
212.20      49.30       212.22      21.57       
212.40      51.08       212.44      52.41       
212.60      52.86       212.55      67.65       
212.80      57.05       212.79      80.13       
213.00      61.25       212.96      88.04       
213.20      63.53       213.20      91.98       
213.40      64.30       213.42      94.88       
213.60      67.35       213.65      102.91      
213.80      73.83       213.87      110.94      
214.00      80.31       214.06      120.12      
214.20      81.83       214.22      101.82      
214.40      81.07       214.40      12.04       
214.60      78.02       214.57      44.28       
214.80      76.50       214.80      71.97       
215.00      74.97       214.98      96.78       
215.20      73.06       215.18      112.60      
215.40      71.16       215.38      123.76      
215.60      68.11       215.63      133.21      
215.80      67.35       215.72      137.14      
216.00      66.58       216.00      133.08      
216.20      65.82       216.15      129.02      
216.40      68.11       216.34      129.87      
216.60      71.92       216.55      139.08      
216.80      76.50       216.77      149.82      
217.00      76.50       217.00      156.36      
217.20      76.50       217.22      158.28      
217.40      79.16       217.45      159.43      
217.60      81.83       217.59      161.14      
217.80      81.83       217.80      161.84      
218.00      81.83       218.04      162.54      
218.20      81.32       218.15      164.43      
218.40      80.82       218.41      167.60      
218.60      80.31       218.68      173.15      
218.80      78.78       218.76      176.62      
219.00      74.97       219.01      180.09      
219.20      71.92       219.23      186.74      
219.40      71.54       219.40      189.84      
219.60      71.16       219.52      192.93      
219.80      71.92       219.81      198.36      
220.00      73.45       220.00      201.17      
220.20      74.97       220.13      203.99      
220.40      71.16       220.41      209.46      
220.60      67.35       220.60      211.66      
220.80      63.53       220.80      213.85      
221.00      53.24       221.05      217.43      
221.20      42.95       221.29      219.34      
221.40      41.04       221.37      221.25      
221.60      39.13       221.55      225.17      
221.80      38.37       221.81      225.65      
222.00      45.23       221.95      226.14      
222.20      49.05       222.23      221.12      
222.40      52.86       222.33      212.68      
222.60      63.53       222.59      208.80      
222.80      64.30       222.77      204.91      
223.00      65.06       223.03      199.52      
223.20      65.82       223.29      195.61      
223.40      66.58       223.34      193.95      
223.60      66.58       223.59      192.28      
223.80      66.58       223.82      190.35      
224.00      66.58       224.09      189.70      
224.20      66.58       224.11      190.35      
224.40      62.77       224.38      191.00      
224.60      62.77       224.64      193.34      
224.80      60.87       224.89      194.71      
225.00      58.96       224.92      193.46      
225.20      55.91       225.19      192.21      
225.40      55.15       225.37      186.31      
225.60      54.38       225.62      180.38      
225.80      53.62       225.85      176.26      
226.00      52.86       226.10      174.06      
226.20      52.10       226.19      173.41      
226.40      51.33       226.41      172.76      
226.60      53.62       226.55      171.67      
226.80      55.15       226.78      169.32      
227.00      56.67       227.01      166.42      
227.20      59.72       227.24      164.32      
227.40      61.25       227.40      11.09       
227.60      60.48       227.55      46.41       
227.80      62.77       227.82      73.52       
228.00      62.01       227.99      93.51       
228.20      58.96       228.16      104.52      
228.40      55.91       228.35      112.84      
228.60      52.86       228.57      25.43       
228.80      55.15       228.78      17.67       
229.00      55.65       229.06      56.92       
229.20      56.16       229.22      82.07       
229.40      56.67       229.39      98.68       
229.60      59.72       229.60      108.35      
229.80      58.96       229.82      115.92      
230.00      59.72       230.06      122.28      
230.20      64.30       230.13      127.56      
230.40      65.44       230.33      133.01      
230.60      66.58       230.55      138.61      
230.80      68.68       230.74      143.02      
231.00      70.78       230.96      146.02      
231.20      72.87       231.18      148.64      
231.40      74.97       231.41      152.17      
231.60      76.50       231.58      156.36      
231.80      75.73       231.88      160.46      
232.00      74.97       232.00      162.28      
232.20      74.21       232.11      164.10      
232.40      73.45       232.38      167.21      
232.60      71.92       232.60      169.99      
232.80      72.30       232.84      172.27      
233.00      72.68       232.92      174.74      
233.20      71.92       233.18      175.91      
233.40      69.63       233.45      177.08      
233.60      69.82       233.60      179.50      
233.80      70.01       233.87      181.55      
234.00      70.21       234.00      182.81      
234.20      70.40       234.13      184.06      
234.40      69.63       234.39      186.45      
234.60      68.87       234.63      187.35      
234.80      68.87       234.88      184.99      
235.00      68.87       235.00      183.54      
235.20      68.87       235.14      182.10      
235.40      68.87       235.40      180.96      
235.60      67.35       235.64      183.59      
235.80      67.35       235.80      184.70      
236.00      67.35       235.92      185.80      
236.20      68.11       236.19      187.02      
236.40      67.73       236.43      186.43      
236.60      67.35       236.68      185.53      
236.80      66.08       236.80      184.51      
237.00      64.80       236.93      183.49      
237.20      63.53       237.21      181.23      
237.40      63.03       237.43      179.79      
237.60      62.52       237.70      180.54      
237.80      62.01       237.72      181.45      
238.00      62.39       237.96      182.35      
238.20      62.77       238.23      185.52      
238.40      62.01       238.49      187.28      
238.60      62.39       238.51      189.04      
238.80      62.77       238.78      193.28      
239.00      62.77       239.03      195.19      
239.20      58.96       239.21      187.09      
239.40      52.10       239.37      184.11      
239.60      54.77       239.51      181.13      
239.80      57.43       239.78      179.98      
240.00      58.20       240.00      178.83      
240.20      59.47       240.26      26.01       
240.40      60.74       240.40      47.20       
240.60      62.01       240.57      74.54       
240.80      65.06       240.78      96.11       
241.00      64.30       241.02      110.02      
241.20      65.82       241.26      121.18      
241.40      66.58       241.35      130.95      
241.60      67.35       241.57      139.41      
241.80      68.11       241.78      146.40      
242.00      66.58       242.00      152.39      
242.20      65.06       242.24      156.88      
242.40      65.44       242.47      159.90      
242.60      65.82       242.51      161.26      
242.80      66.08       242.71      162.61      
243.00      66.33       242.94      165.33      
243.20      66.58       243.19      168.22      
243.40      66.58       243.41      169.82      
243.60      66.58       243.58      170.14      
243.80      66.58       243.87      169.70      
244.00      66.96       244.00      169.89      
244.20      67.35       244.15      170.08      
244.40      67.35       244.39      172.23      
244.60      69.63       244.64      175.49      
