~VERSION INFORMATION
VERS.                   2.0                              : CWLS LOG ASCII STANDARD - VERSION 2.0
WRAP.                   NO                               : ONE LINE PER DEPTH STEP
PHXV.                   1.8.1.1                          : PhoenixLAS Generator Version
VDAT.                   03/27/2019 09:05:43              : PhoenixLAS Build Date
~WELL INFORMATION
#MNEM.UNIT              DATA                             DESCRIPTION
#----- -----            ----------                       -----------------------
STRT    .M              212.00                           : START DEPTH
STOP    .M              1234.00                          : STOP DEPTH
STEP    .M              0.20                             : STEP
NULL    .               -999.25                          : NULL VALUE
WELL    .               CARDINAL 102 MHZ ALDERSON 3-36-17-11 W4M : Well Name
RIG     .               Bonanza-7                        : Rig Name
COMP    .               Cardinal Energy Ltd.             : Client Name
CTRY    .               CA                               : Country
LOC     .               03-01-018-11 W4                  : Surface Location
PROV    .               AB                               : Province
UWI     .               102/03-36-017-11W3/00            : Unique Well ID
DATE    .               11/01/2022 19:56:49              : Date
RIGTYPE .               Super Single                     : Rig Type
LICENSE .               0505900                          : WellLicence Number
SRVC    .               Phoenix Technology Service       : Service Company
FLD     .                                                : Field
~CURVE INFORMATION
#MNEM.UNIT              API CODES                        CURVE DESCRIPTION
#----- -----            ----------                       -----------------------
DEPT    .M              001                              : DEPTH
MG1C    .API                                             : Gamma Ray (Corrected)
DVER    .M              960                              : Hole TVD
ROPA    .M/HR                                            : Rate of Penetration
~OTHER
DRAFT
~A DEPT     MG1C        DVER        ROPA        
# ...
802.40      111.57      783.78      73.62       
802.60      116.91      783.90      76.96       
802.80      116.91      784.07      79.75       
803.00      117.67      784.23      86.34       
803.20      115.38      784.41      85.46       
803.40      113.09      784.58      83.10       
803.60      110.81      784.68      83.22       
803.80      110.04      784.84      82.71       
804.00      110.81      785.03      82.44       
804.20      111.57      785.13      83.75       
804.40      112.33      785.29      6.65        
804.60      116.14      785.46      31.58       
804.80      116.52      785.63      57.24       
805.00      116.91      785.78      88.34       
805.20      116.14      785.94      113.42      
805.40      116.53      786.12      131.10      
805.60      116.91      786.17      139.04      
805.80      116.65      786.33      146.99      
806.00      116.40      786.53      162.77      
806.20      116.14      786.67      177.16      
806.40      112.33      786.82      182.98      
806.60      108.52      786.97      188.80      
806.80      105.72      787.18      196.77      
807.00      102.93      787.28      200.51      
807.20      100.13      787.43      204.24      
807.40      94.79       787.64      209.06      
807.60      88.31       787.71      213.89      
807.80      81.83       787.89      220.81      
808.00      75.73       787.99      227.72      
808.20      74.21       788.17      238.66      
808.40      72.68       788.36      239.19      
808.60      73.14       788.43      239.72      
808.80      73.60       788.69      233.57      
809.00      74.06       788.79      231.20      
809.20      74.51       788.95      228.82      
809.40      74.97       789.07      231.51      
809.60      79.55       789.20      234.19      
809.80      81.45       789.45      240.25      
810.00      83.36       789.54      242.15      
810.20      85.26       789.70      244.06      
810.40      87.17       789.78      243.04      
810.60      87.17       790.00      242.02      
810.80      88.31       790.18      239.29      
811.00      89.46       790.24      237.66      
811.20      90.22       790.43      236.04      
811.40      90.22       790.64      232.18      
811.60      90.22       790.69      230.21      
811.80      92.00       790.88      228.24      
812.00      93.78       791.10      224.33      
812.20      95.56       791.15      222.84      
812.40      98.61       791.34      221.34      
812.60      98.86       791.56      220.22      
812.80      99.12       791.65      220.14      
813.00      99.37       791.80      220.06      
813.20      100.51      792.01      220.61      
813.40      101.66      792.07      220.44      
813.60      103.18      792.25      220.27      
813.80      102.80      792.40      220.07      
814.00      102.42      792.57      219.87      
814.20      100.13      792.69      219.76      
814.40      103.94      792.87      25.30       
814.60      105.85      792.96      48.22       
814.80      107.76      793.15      58.22       
815.00      102.42      793.33      63.63       
815.20      100.89      793.43      72.90       
815.40      99.37       793.60      81.39       
815.60      97.84       793.72      83.83       
815.80      93.27       793.88      86.81       
816.00      88.19       794.06      88.01       
816.20      83.10       794.19      69.35       
816.40      78.02       794.32      7.94        
816.60      77.64       794.54      35.69       
816.80      77.26       794.63      63.76       
817.00      78.27       794.78      81.42       
817.20      79.29       794.87      99.08       
817.40      80.31       795.05      128.89      
817.60      81.83       795.25      151.38      
817.80      83.36       795.38      160.56      
818.00      84.88       795.46      169.75      
818.20      86.41       795.67      184.46      
818.40      87.93       795.84      190.31      
818.60      89.08       795.91      196.15      
818.80      90.22       796.14      204.88      
819.00      91.55       796.27      208.83      
819.20      92.89       796.37      212.78      
819.40      94.22       796.61      219.72      
819.60      95.56       796.79      222.77      
819.80      97.08       796.86      225.82      
820.00      98.61       797.04      227.86      
820.20      100.13      797.11      229.90      
820.40      101.66      797.33      232.30      
820.60      103.18      797.52      232.63      
820.80      103.18      797.56      232.95      
821.00      103.18      797.75      232.19      
821.20      103.56      797.91      231.30      
821.40      103.94      798.06      230.40      
821.60      103.18      798.23      229.28      
821.80      102.42      798.35      229.00      
822.00      101.66      798.52      228.71      
822.20      99.37       798.65      228.57      
822.40      97.08       798.75      228.42      
822.60      94.79       798.97      227.52      
822.80      94.79       799.16      226.84      
823.00      94.79       799.22      226.15      
823.20      94.79       799.43      224.58      
823.40      94.79       799.61      224.08      
823.60      95.56       799.67      223.57      
823.80      96.32       799.82      223.80      
824.00      94.79       800.06      224.41      
824.20      94.41       800.13      225.02      
824.40      94.03       800.26      225.50      
824.60      92.51       800.38      225.97      
824.80      91.74       800.61      226.68      
825.00      90.98       800.73      226.31      
825.20      90.22       800.82      225.93      
825.40      89.46       801.06      224.19      
825.60      90.22       801.19      222.46      
825.80      92.00       801.27      220.74      
826.00      93.78       801.49      217.95      
826.20      95.56       801.62      217.06      
826.40      95.56       801.73      216.16      
826.60      99.37       801.95      216.14      
826.80      103.18      802.04      216.88      
827.00      107.76      802.26      217.62      
827.20      110.04      802.43      221.26      
827.40      112.33      802.46      223.84      
827.60      112.33      802.68      226.42      
827.80      112.33      802.81      228.35      
828.00      109.28      802.98      23.04       
828.20      98.61       803.12      45.86       
828.40      91.74       803.26      79.30       
828.60      93.27       803.44      111.13      
828.80      99.37       803.53      134.84      
829.00      113.86      803.68      144.57      
829.20      116.91      803.85      154.31      
829.40      117.67      803.99      172.77      
829.60      109.28      804.16      180.94      
829.80      106.99      804.32      189.10      
830.00      110.81      804.49      202.33      
830.20      115.38      804.58      206.98      
830.40      113.09      804.75      211.63      
830.60      108.52      804.89      215.80      
830.80      103.94      805.07      219.98      
831.00      100.89      805.23      227.08      
831.20      97.84       805.36      229.94      
831.40      97.08       805.49      232.80      
831.60      87.93       805.59      234.01      
831.80      87.17       805.83      235.22      
832.00      87.17       805.94      234.89      
832.20      87.17       806.08      233.82      
832.40      87.17       806.19      232.74      
832.60      87.17       806.43      230.10      
832.80      89.46       806.52      229.69      
833.00      89.71       806.66      229.28      
833.20      89.97       806.89      229.91      
833.40      90.22       806.96      230.63      
833.60      91.74       807.14      231.35      
833.80      91.74       807.26      231.67      
834.00      91.74       807.42      231.98      
834.20      92.89       807.61      232.13      
834.40      94.03       807.66      231.99      
834.60      94.79       807.84      231.84      
834.80      95.56       808.00      231.62      
835.00      96.32       808.09      231.39      
