~VERSION INFORMATION
VERS.                   2.0                              : CWLS LOG ASCII STANDARD - VERSION 2.0
WRAP.                   NO                               : ONE LINE PER DEPTH STEP
PHXV.                   1.8.1.1                          : PhoenixLAS Generator Version
VDAT.                   03/27/2019 09:05:43              : PhoenixLAS Build Date
~WELL INFORMATION
#MNEM.UNIT              DATA                             DESCRIPTION
#----- -----            ----------                       -----------------------
STRT    .M              212.00                           : START DEPTH
STOP    .M              1234.00                          : STOP DEPTH
STEP    .M              0.20                             : STEP
NULL    .               -999.25                          : NULL VALUE
WELL    .               CARDINAL 102 MHZ ALDERSON 3-36-17-11 W4M : Well Name
RIG     .               Bonanza-7                        : Rig Name
COMP    .               Cardinal Energy Ltd.             : Client Name
CTRY    .               CA                               : Country
LOC     .               03-01-018-11 W4                  : Surface Location
PROV    .               AB                               : Province
UWI     .               102/03-36-017-11W3/00            : Unique Well ID
DATE    .               11/01/2022 19:56:49              : Date
RIGTYPE .               Super Single                     : Rig Type
LICENSE .               0505900                          : WellLicence Number
SRVC    .               Phoenix Technology Service       : Service Company
FLD     .                                                : Field
~CURVE INFORMATION
#MNEM.UNIT              API CODES                        CURVE DESCRIPTION
#----- -----            ----------                       -----------------------
DEPT    .M              001                              : DEPTH
MG1C    .API                                             : Gamma Ray (Corrected)
DVER    .M              960                              : Hole TVD
ROPA    .M/HR                                            : Rate of Penetration
~OTHER
DRAFT
~A DEPT     MG1C        DVER        ROPA        
# ...
540.00      124.53      540.03      138.47      
540.20      129.11      540.23      139.65      
540.40      130.44      540.43      141.17      
540.60      131.77      540.62      143.01      
540.80      133.11      540.82      143.58      
541.00      134.44      541.03      142.87      
541.20      136.73      541.24      142.89      
541.40      139.78      541.35      145.69      
541.60      136.73      541.57      150.47      
541.80      134.82      541.79      152.88      
542.00      132.92      542.01      155.28      
542.20      131.77      542.13      158.83      
542.40      130.63      542.40      160.99      
542.60      129.49      542.58      161.93      
542.80      128.34      542.81      162.04      
543.00      132.16      542.99      162.33      
543.20      132.16      543.15      162.84      
543.40      131.39      543.47      162.47      
543.60      131.39      543.63      159.99      
543.80      129.11      543.81      158.07      
544.00      128.34      543.90      156.15      
544.20      127.58      544.13      153.87      
544.40      126.82      544.35      154.93      
544.60      128.34      544.59      158.73      
544.80      129.87      544.82      162.57      
545.00      131.39      545.05      165.02      
545.20      131.39      545.12      166.37      
545.40      135.97      545.31      166.84      
545.60      138.26      545.52      167.31      
545.80      137.49      545.78      169.16      
546.00      130.63      546.03      171.98      
546.20      129.11      546.20      174.09      
546.40      130.63      546.42      16.72       
546.60      134.44      546.60      46.37       
546.80      131.39      546.79      60.14       
547.00      129.87      546.99      68.37       
547.20      127.58      547.17      70.47       
547.40      133.68      547.41      67.95       
547.60      134.44      547.57      69.37       
547.80      132.16      547.78      72.95       
548.00      134.44      547.99      74.15       
548.20      135.21      548.19      74.91       
548.40      141.31      548.40      74.09       
548.60      140.54      548.60      71.70       
548.80      139.02      548.79      72.80       
549.00      136.73      549.00      73.87       
549.20      132.16      549.20      73.33       
549.40      131.39      549.38      6.44        
549.60      132.16      549.58      28.96       
549.80      132.16      549.85      54.38       
550.00      130.63      550.03      97.63       
550.20      128.34      550.23      108.19      
550.40      127.58      550.40      116.23      
550.60      128.34      550.59      122.78      
550.80      128.85      550.79      128.70      
551.00      129.36      550.99      134.28      
551.20      129.87      551.20      139.11      
551.40      130.63      551.40      142.84      
551.60      132.92      551.58      144.21      
551.80      135.21      551.80      141.64      
552.00      133.68      551.96      135.41      
552.20      130.63      552.13      129.76      
552.40      129.11      552.32      128.07      
552.60      128.34      552.66      130.42      
552.80      128.60      552.87      135.92      
553.00      128.85      553.06      137.26      
553.20      129.11      553.23      137.94      
553.40      129.87      553.42      138.67      
553.60      130.63      553.66      139.92      
553.80      131.39      553.86      142.04      
554.00      132.16      554.04      144.12      
554.20      134.44      554.25      145.17      
554.40      136.73      554.48      146.17      
554.60      137.49      554.58      147.05      
554.80      138.26      554.70      147.92      
555.00      138.26      554.93      151.36      
555.20      138.26      555.15      154.90      
555.40      137.49      555.38      158.53      
555.60      136.73      555.59      160.53      
555.80      137.49      555.79      159.98      
556.00      138.26      555.98      155.50      
556.20      139.02      556.17      148.29      
556.40      139.78      556.38      128.14      
556.60      139.78      556.56      114.04      
556.80      141.31      556.73      101.19      
557.00      142.83      556.94      107.88      
557.20      140.54      557.15      115.45      
557.40      141.31      557.38      118.24      
557.60      141.69      557.55      119.08      
557.80      142.07      557.73      120.82      
558.00      140.54      557.91      123.28      
558.20      139.02      558.13      126.14      
558.40      140.54      558.28      129.24      
558.60      142.07      558.52      132.23      
558.80      142.07      558.72      136.00      
559.00      138.26      558.92      140.06      
559.20      134.44      559.11      143.01      
559.40      130.63      559.37      144.08      
559.60      126.82      559.57      6.31        
559.80      126.82      559.75      24.01       
560.00      129.11      559.99      50.30       
560.20      133.68      560.18      58.43       
560.40      132.16      560.36      63.67       
560.60      133.68      560.56      62.13       
560.80      132.92      560.75      64.40       
561.00      134.06      560.97      64.27       
561.20      135.21      561.14      65.77       
561.40      133.30      561.33      65.16       
561.60      131.39      561.60      67.00       
561.80      127.58      561.78      64.57       
562.00      128.34      561.96      65.05       
562.20      129.87      562.15      67.26       
562.40      132.16      562.36      66.72       
562.60      132.16      562.58      67.11       
562.80      131.39      562.73      18.45       
563.00      132.92      562.94      35.96       
563.20      131.39      563.21      70.82       
563.40      128.34      563.41      89.62       
563.60      126.82      563.59      104.81      
563.80      124.53      563.79      116.30      
564.00      125.04      563.98      126.10      
564.20      125.55      564.20      134.78      
564.40      126.06      564.42      142.74      
564.60      130.63      564.62      148.82      
564.80      132.92      564.80      151.02      
565.00      135.21      564.98      148.03      
565.20      132.92      565.18      142.11      
565.40      132.92      565.36      137.40      
565.60      132.59      565.52      134.35      
565.80      132.26      565.69      131.26      
566.00      131.94      565.88      126.80      
566.20      131.61      566.22      125.14      
566.40      131.28      566.41      127.01      
566.60      130.96      566.60      128.32      
566.80      130.63      566.78      129.95      
567.00      133.68      566.92      132.58      
567.20      135.46      567.17      135.40      
567.40      137.24      567.38      138.15      
567.60      139.02      567.58      141.43      
567.80      142.07      567.80      145.48      
568.00      143.59      568.03      149.84      
568.20      143.97      568.14      151.88      
568.40      144.36      568.25      153.92      
568.60      144.36      568.47      157.24      
568.80      144.36      568.70      159.45      
569.00      144.36      568.91      160.22      
569.20      144.36      569.11      159.12      
569.40      142.07      569.30      155.67      
569.60      142.83      569.50      150.79      
569.80      143.59      569.69      145.84      
570.00      144.36      569.89      142.41      
570.20      145.88      570.09      140.39      
570.40      140.54      570.28      140.25      
570.60      136.73      570.49      141.61      
570.80      132.16      570.71      144.15      
571.00      126.82      570.90      146.20      
571.20      126.06      571.17      146.12      
571.40      124.91      571.28      144.31      
571.60      123.77      571.50      142.20      
571.80      126.82      571.68      141.62      
572.00      127.58      571.88      142.21      
572.20      127.58      572.09      142.53      
572.40      118.43      572.32      141.86      
572.60      119.19      572.53      10.30       
