~VERSION INFORMATION
VERS.                   2.0                              : CWLS LOG ASCII STANDARD - VERSION 2.0
WRAP.                   NO                               : ONE LINE PER DEPTH STEP
PHXV.                   1.8.1.1                          : PhoenixLAS Generator Version
VDAT.                   03/27/2019 09:05:43              : PhoenixLAS Build Date
~WELL INFORMATION
#MNEM.UNIT              DATA                             DESCRIPTION
#----- -----            ----------                       -----------------------
STRT    .M              212.00                           : START DEPTH
STOP    .M              1234.00                          : STOP DEPTH
STEP    .M              0.20                             : STEP
NULL    .               -999.25                          : NULL VALUE
WELL    .               CARDINAL 102 MHZ ALDERSON 3-36-17-11 W4M : Well Name
RIG     .               Bonanza-7                        : Rig Name
COMP    .               Cardinal Energy Ltd.             : Client Name
CTRY    .               CA                               : Country
LOC     .               03-01-018-11 W4                  : Surface Location
PROV    .               AB                               : Province
UWI     .               102/03-36-017-11W3/00            : Unique Well ID
DATE    .               11/01/2022 19:56:49              : Date
RIGTYPE .               Super Single                     : Rig Type
LICENSE .               0505900                          : WellLicence Number
SRVC    .               Phoenix Technology Service       : Service Company
FLD     .                                                : Field
~CURVE INFORMATION
#MNEM.UNIT              API CODES                        CURVE DESCRIPTION
#----- -----            ----------                       -----------------------
DEPT    .M              001                              : DEPTH
MG1C    .API                                             : Gamma Ray (Corrected)
DVER    .M              960                              : Hole TVD
ROPA    .M/HR                                            : Rate of Penetration
~OTHER
DRAFT
~A DEPT     MG1C        DVER        ROPA        
# ...
343.20      112.59      343.18      199.46      
343.40      113.09      343.42      198.71      
343.60      113.09      343.69      199.11      
343.80      112.71      343.73      199.51      
344.00      112.33      344.02      200.96      
344.20      112.33      344.23      201.75      
344.40      115.38      344.45      202.53      
344.60      112.71      344.58      203.51      
344.80      110.04      344.78      203.10      
345.00      103.94      344.99      10.34       
345.20      97.84       345.16      21.82       
345.40      94.03       345.38      50.35       
345.60      90.98       345.62      78.01       
345.80      89.46       345.86      89.76       
346.00      88.31       346.07      104.18      
346.20      87.17       346.14      122.71      
346.40      86.41       346.41      131.55      
346.60      89.46       346.53      140.39      
346.80      92.51       346.78      154.56      
347.00      95.56       347.03      165.76      
347.20      98.61       347.27      173.23      
347.40      98.99       347.40      175.91      
347.60      99.37       347.55      178.58      
347.80      99.62       347.82      182.19      
348.00      99.88       348.08      186.57      
348.20      100.13      348.11      188.07      
348.40      99.37       348.40      189.57      
348.60      100.13      348.60      190.33      
348.80      99.37       348.85      188.61      
349.00      98.61       348.99      187.51      
349.20      102.42      349.26      186.40      
349.40      102.04      349.38      185.82      
349.60      101.66      349.63      186.30      
349.80      101.47      349.89      186.02      
350.00      101.28      350.00      185.83      
350.20      101.08      350.16      185.63      
350.40      100.89      350.43      185.70      
350.60      100.89      350.69      189.02      
350.80      100.89      350.77      190.44      
351.00      100.51      350.96      191.85      
351.20      100.13      351.23      193.61      
351.40      99.75       351.49      193.07      
351.60      99.37       351.64      192.70      
351.80      100.13      351.76      192.33      
352.00      100.89      352.02      191.55      
352.20      101.66      352.23      190.90      
352.40      103.18      352.40      190.74      
352.60      104.71      352.55      190.57      
352.80      105.47      352.81      190.60      
353.00      105.09      353.08      190.71      
353.20      104.71      353.20      190.66      
353.40      104.33      353.35      190.61      
353.60      103.94      353.61      190.49      
353.80      103.56      353.87      190.49      
354.00      103.18      353.91      190.55      
354.20      103.37      354.14      190.61      
354.40      103.56      354.41      190.89      
354.60      103.75      354.68      191.28      
354.80      103.94      354.77      191.48      
355.00      104.71      355.04      191.67      
355.20      105.47      355.19      191.56      
355.40      105.47      355.45      190.24      
355.60      105.47      355.57      189.13      
355.80      105.47      355.71      188.02      
356.00      105.47      355.97      185.66      
356.20      105.47      356.23      184.71      
356.40      107.38      356.48      185.07      
356.60      109.28      356.62      185.13      
356.80      108.77      356.73      185.19      
357.00      108.27      357.01      185.58      
357.20      107.76      357.16      186.24      
357.40      110.43      357.40      187.79      
357.60      113.09      357.55      189.33      
357.80      112.33      357.82      192.35      
358.00      111.57      358.04      194.02      
358.20      111.57      358.21      17.84       
358.40      111.57      358.37      34.03       
358.60      111.57      358.55      59.59       
358.80      113.09      358.75      91.34       
359.00      114.62      358.97      117.59      
359.20      118.43      359.21      136.03      
359.40      120.72      359.39      151.60      
359.60      120.72      359.65      158.20      
359.80      118.43      359.73      164.81      
360.00      116.14      360.00      176.11      
360.20      117.67      360.15      184.83      
360.40      116.60      360.40      188.37      
360.60      115.53      360.56      191.91      
360.80      114.47      360.86      197.41      
361.00      113.40      361.00      199.64      
361.20      112.33      361.15      201.87      
361.40      112.59      361.40      202.97      
361.60      112.84      361.70      202.64      
361.80      113.09      361.90      202.19      
362.00      112.84      361.99      201.73      
362.20      112.59      362.28      203.92      
362.40      112.33      362.42      205.20      
362.60      116.14      362.58      206.48      
362.80      117.29      362.85      208.28      
363.00      118.43      362.94      208.44      
363.20      118.43      363.20      208.60      
363.40      121.86      363.46      209.48      
363.60      125.29      363.70      210.57      
363.80      124.78      363.75      211.65      
364.00      124.28      364.06      214.72      
364.20      123.77      364.23      215.69      
364.40      121.99      364.36      216.65      
364.60      120.21      364.66      217.57      
364.80      118.43      364.74      217.06      
365.00      117.67      365.00      216.55      
365.20      115.13      365.23      214.75      
365.40      112.59      365.40      213.45      
365.60      110.04      365.53      212.15      
365.80      102.42      365.79      210.24      
366.00      100.89      366.10      209.10      
366.20      99.37       366.18      208.91      
366.40      99.88       366.40      208.72      
366.60      100.39      366.64      206.75      
366.80      100.89      366.83      204.76      
367.00      102.67      366.92      202.76      
367.20      104.45      367.21      198.45      
367.40      106.23      367.37      197.35      
367.60      108.90      367.60      199.04      
367.80      111.57      367.78      200.73      
368.00      111.57      368.07      204.47      
368.20      111.57      368.15      205.46      
368.40      115.38      368.40      206.46      
368.60      118.43      368.63      205.52      
368.80      115.76      368.89      203.22      
369.00      113.09      368.92      201.54      
369.20      110.04      369.18      199.86      
369.40      108.71      369.42      196.00      
369.60      107.38      369.70      193.27      
369.80      106.04      369.80      192.81      
370.00      104.71      369.98      192.35      
370.20      99.37       370.21      191.81      
370.40      98.86       370.48      191.14      
370.60      98.35       370.60      190.40      
370.80      97.84       370.78      189.65      
371.00      97.08       371.02      189.71      
371.20      97.46       371.29      190.99      
371.40      97.84       371.43      189.79      
371.60      98.61       371.63      188.58      
371.80      99.37       371.78      15.99       
372.00      101.66      371.93      32.50       
372.20      102.04      372.30      89.50       
372.40      102.42      372.50      113.09      
372.60      102.80      372.60      121.37      
372.80      103.18      372.84      129.65      
373.00      103.56      372.98      158.17      
373.20      103.94      373.11      163.86      
373.40      108.52      373.37      169.55      
373.60      106.23      373.64      173.44      
373.80      106.49      373.74      177.32      
374.00      106.74      373.98      179.79      
374.20      106.99      374.17      178.90      
374.40      105.09      374.40      178.80      
374.60      103.18      374.69      178.71      
374.80      104.20      374.74      178.61      
375.00      105.22      374.99      180.61      
375.20      106.23      375.22      181.80      
375.40      106.74      375.49      180.86      
375.60      107.25      375.60      180.94      
375.80      107.76      375.77      181.03      
