~VERSION INFORMATION
VERS.                   2.0                              : CWLS LOG ASCII STANDARD - VERSION 2.0
WRAP.                   NO                               : ONE LINE PER DEPTH STEP
PHXV.                   1.8.1.1                          : PhoenixLAS Generator Version
VDAT.                   03/27/2019 09:05:43              : PhoenixLAS Build Date
~WELL INFORMATION
#MNEM.UNIT              DATA                             DESCRIPTION
#----- -----            ----------                       -----------------------
STRT    .M              212.00                           : START DEPTH
STOP    .M              1234.00                          : STOP DEPTH
STEP    .M              0.20                             : STEP
NULL    .               -999.25                          : NULL VALUE
WELL    .               CARDINAL 102 MHZ ALDERSON 3-36-17-11 W4M : Well Name
RIG     .               Bonanza-7                        : Rig Name
COMP    .               Cardinal Energy Ltd.             : Client Name
CTRY    .               CA                               : Country
LOC     .               03-01-018-11 W4                  : Surface Location
PROV    .               AB                               : Province
UWI     .               102/03-36-017-11W3/00            : Unique Well ID
DATE    .               11/01/2022 19:56:49              : Date
RIGTYPE .               Super Single                     : Rig Type
LICENSE .               0505900                          : WellLicence Number
SRVC    .               Phoenix Technology Service       : Service Company
FLD     .                                                : Field
~CURVE INFORMATION
#MNEM.UNIT              API CODES                        CURVE DESCRIPTION
#----- -----            ----------                       -----------------------
DEPT    .M              001                              : DEPTH
MG1C    .API                                             : Gamma Ray (Corrected)
DVER    .M              960                              : Hole TVD
ROPA    .M/HR                                            : Rate of Penetration
~OTHER
DRAFT
~A DEPT     MG1C        DVER        ROPA        
# ...
474.40      128.09      474.40      213.65      
474.60      127.58      474.63      213.57      
474.80      128.09      474.80      212.17      
475.00      128.60      475.09      210.77      
475.20      129.11      475.18      209.28      
475.40      127.58      475.45      207.80      
475.60      126.82      475.67      206.31      
475.80      126.06      475.73      205.80      
476.00      126.06      476.00      205.28      
476.20      121.48      476.24      205.33      
476.40      121.86      476.40      206.05      
476.60      122.24      476.57      206.76      
476.80      123.96      476.80      208.64      
477.00      125.67      477.00      210.51      
477.20      127.39      477.16      212.39      
477.40      129.11      477.41      215.66      
477.60      133.68      477.60      214.13      
477.80      133.43      477.75      16.81       
478.00      133.17      477.91      33.10       
478.20      132.92      478.13      62.38       
478.40      129.11      478.40      91.66       
478.60      126.82      478.59      121.94      
478.80      127.96      478.83      144.63      
479.00      129.11      479.00      163.35      
479.20      131.39      479.23      171.33      
479.40      132.16      479.39      179.32      
479.60      134.06      479.68      192.16      
479.80      135.97      479.72      196.47      
480.00      136.73      479.97      200.78      
480.20      132.92      480.22      205.54      
480.40      132.35      480.40      206.87      
480.60      131.77      480.56      208.19      
480.80      131.20      480.83      209.29      
481.00      130.63      480.95      207.56      
481.20      129.11      481.19      203.94      
481.40      127.96      481.40      200.33      
481.60      126.82      481.64      196.71      
481.80      126.82      481.86      195.46      
482.00      129.87      482.07      194.21      
482.20      127.58      482.19      195.47      
482.40      126.82      482.47      198.20      
482.60      126.06      482.55      198.88      
482.80      127.58      482.82      199.55      
483.00      127.20      483.02      199.20      
483.20      126.82      483.30      198.80      
483.40      126.44      483.40      198.98      
483.60      126.06      483.58      199.15      
483.80      129.11      483.81      200.13      
484.00      129.87      484.00      200.35      
484.20      130.63      484.13      200.57      
484.40      131.39      484.41      200.29      
484.60      132.16      484.58      199.41      
484.80      135.97      484.85      198.94      
485.00      136.35      484.96      198.46      
485.20      136.73      485.23      197.63      
485.40      132.92      485.36      197.57      
485.60      131.77      485.51      197.51      
485.80      130.63      485.78      198.01      
486.00      128.60      486.06      198.62      
486.20      126.56      486.20      198.76      
486.40      124.53      486.35      198.89      
486.60      123.01      486.61      198.74      
486.80      121.48      486.85      198.18      
487.00      125.67      487.00      197.77      
487.20      129.87      487.16      197.35      
487.40      137.49      487.42      196.39      
487.60      138.64      487.69      195.46      
487.80      139.78      487.75      195.05      
488.00      145.88      488.00      194.64      
488.20      146.64      488.22      193.41      
488.40      149.31      488.49      192.83      
488.60      151.98      488.52      192.69      
488.80      150.07      488.77      192.55      
489.00      148.17      489.04      193.68      
489.20      147.91      489.20      194.34      
489.40      147.66      489.32      194.99      
489.60      147.41      489.59      196.58      
489.80      146.64      489.89      198.24      
490.00      145.88      490.10      199.24      
490.20      146.26      490.16      200.24      
490.40      146.64      490.37      202.03      
490.60      146.64      490.69      202.34      
490.80      145.88      490.72      202.65      
491.00      145.12      491.00      155.34      
491.20      144.74      491.16      19.37       
491.40      144.36      491.32      69.82       
491.60      143.59      491.61      120.26      
491.80      145.12      491.85      170.71      
492.00      140.54      491.99      156.55      
492.20      135.97      492.18      124.56      
492.40      131.39      492.37      99.79       
492.60      128.34      492.59      109.77      
492.80      128.34      492.82      132.06      
493.00      128.34      493.06      147.52      
493.20      128.34      493.19      153.19      
493.40      127.58      493.45      158.85      
493.60      127.96      493.56      166.82      
493.80      128.34      493.81      172.57      
494.00      131.39      493.97      176.45      
494.20      135.97      494.21      177.69      
494.40      132.92      494.40      178.93      
494.60      137.49      494.56      179.73      
494.80      142.07      494.78      178.63      
495.00      145.88      495.00      175.76      
495.20      139.78      495.23      171.29      
495.40      138.26      495.38      166.00      
495.60      138.26      495.66      161.00      
495.80      137.49      495.83      158.03      
496.00      138.26      496.00      158.29      
496.20      138.00      496.14      158.55      
496.40      137.75      496.41      163.87      
496.60      137.49      496.59      171.92      
496.80      138.26      496.81      179.01      
497.00      139.40      497.00      180.25      
497.20      140.54      497.15      181.48      
497.40      141.30      497.40      180.26      
497.60      142.07      497.65      178.60      
497.80      142.83      497.81      178.82      
498.00      146.64      498.07      179.03      
498.20      146.26      498.17      180.94      
498.40      145.88      498.44      183.72      
498.60      148.17      498.56      186.83      
498.80      145.12      498.80      188.02      
499.00      142.07      498.95      189.21      
499.20      139.40      499.20      188.81      
499.40      136.73      499.45      185.91      
499.60      141.31      499.67      182.04      
499.80      145.88      499.89      180.78      
500.00      146.26      499.94      179.52      
500.20      146.64      500.19      177.93      
500.40      151.22      500.44      177.35      
500.60      151.98      500.58      177.01      
500.80      150.84      500.85      173.37      
501.00      149.69      501.09      166.51      
501.20      148.55      501.20      163.25      
501.40      147.41      501.34      159.98      
501.60      150.46      501.59      160.82      
501.80      149.88      501.84      168.74      
502.00      149.31      502.00      173.02      
502.20      148.74      502.11      177.30      
502.40      148.17      502.37      183.61      
502.60      151.22      502.58      187.29      
502.80      142.83      502.84      189.32      
503.00      139.78      502.91      191.34      
503.20      136.73      503.15      191.55      
503.40      135.97      503.41      189.13      
503.60      135.21      503.64      184.52      
503.80      136.48      503.80      184.87      
504.00      137.75      503.96      185.21      
504.20      139.02      504.16      191.83      
504.40      145.12      504.42      197.46      
504.60      147.02      504.61      203.09      
504.80      148.93      504.80      208.50      
505.00      150.84      504.91      213.91      
505.20      152.74      505.20      220.19      
505.40      153.89      505.46      21.58       
505.60      155.03      505.62      39.17       
505.80      155.79      505.81      66.78       
506.00      156.55      506.04      99.17       
506.20      158.08      506.28      125.33      
506.40      161.64      506.40      135.27      
506.60      165.20      506.53      145.21      
506.80      168.75      506.80      161.06      
507.00      171.04      507.04      172.75      
