~VERSION INFORMATION
VERS.                   2.0                              : CWLS LOG ASCII STANDARD - VERSION 2.0
WRAP.                   NO                               : ONE LINE PER DEPTH STEP
PHXV.                   1.8.1.1                          : PhoenixLAS Generator Version
VDAT.                   03/27/2019 09:05:43              : PhoenixLAS Build Date
~WELL INFORMATION
#MNEM.UNIT              DATA                             DESCRIPTION
#----- -----            ----------                       -----------------------
STRT    .M              212.00                           : START DEPTH
STOP    .M              1234.00                          : STOP DEPTH
STEP    .M              0.20                             : STEP
NULL    .               -999.25                          : NULL VALUE
WELL    .               CARDINAL 102 MHZ ALDERSON 3-36-17-11 W4M : Well Name
RIG     .               Bonanza-7                        : Rig Name
COMP    .               Cardinal Energy Ltd.             : Client Name
CTRY    .               CA                               : Country
LOC     .               03-01-018-11 W4                  : Surface Location
PROV    .               AB                               : Province
UWI     .               102/03-36-017-11W3/00            : Unique Well ID
DATE    .               11/01/2022 19:56:49              : Date
RIGTYPE .               Super Single                     : Rig Type
LICENSE .               0505900                          : WellLicence Number
SRVC    .               Phoenix Technology Service       : Service Company
FLD     .                                                : Field
~CURVE INFORMATION
#MNEM.UNIT              API CODES                        CURVE DESCRIPTION
#----- -----            ----------                       -----------------------
DEPT    .M              001                              : DEPTH
MG1C    .API                                             : Gamma Ray (Corrected)
DVER    .M              960                              : Hole TVD
ROPA    .M/HR                                            : Rate of Penetration
~OTHER
DRAFT
~A DEPT     MG1C        DVER        ROPA        
# ...
277.60      92.51       277.61      196.09      
277.80      92.51       277.88      198.06      
278.00      92.51       277.99      199.19      
278.20      89.46       278.17      200.31      
278.40      88.70       278.45      201.88      
278.60      87.93       278.59      202.54      
278.80      87.93       278.76      203.20      
279.00      89.08       279.03      204.27      
279.20      90.22       279.21      203.97      
279.40      87.17       279.37      17.62       
279.60      89.46       279.54      35.09       
279.80      88.70       279.73      59.02       
280.00      88.70       279.95      92.31       
280.20      89.84       280.20      114.65      
280.40      90.98       280.37      136.99      
280.60      90.73       280.62      150.18      
280.80      90.47       280.87      161.13      
281.00      90.22       280.97      165.78      
281.20      89.71       281.13      170.43      
281.40      89.20       281.40      177.82      
281.60      88.70       281.54      185.21      
281.80      85.65       281.82      187.50      
282.00      84.12       281.94      189.79      
282.20      82.60       282.23      193.05      
282.40      81.83       282.41      195.03      
282.60      80.31       282.54      197.00      
282.80      80.69       282.83      209.51      
283.00      81.07       282.99      211.01      
283.20      82.21       283.20      212.51      
283.40      83.36       283.43      214.01      
283.60      84.50       283.60      107.31      
283.80      85.65       283.84      0.60        
284.00      88.31       283.97      9.02        
284.20      90.98       284.20      23.18       
284.40      90.73       284.48      74.03       
284.60      90.47       284.70      105.49      
284.80      90.22       284.85      117.16      
285.00      89.84       284.93      128.83      
285.20      89.46       285.18      145.29      
285.40      87.93       285.43      159.18      
285.60      86.41       285.70      170.31      
285.80      84.88       285.79      174.88      
286.00      84.12       285.98      179.44      
286.20      86.03       286.26      187.66      
286.40      87.93       286.40      192.00      
286.60      88.85       286.59      196.35      
286.80      89.76       286.88      205.23      
287.00      90.68       287.00      209.49      
287.20      91.59       287.20      213.75      
287.40      92.51       287.35      217.21      
287.60      91.74       287.64      220.67      
287.80      91.36       287.85      225.44      
288.00      90.98       288.01      226.73      
288.20      89.46       288.15      228.01      
288.40      87.17       288.39      228.44      
288.60      85.65       288.65      228.37      
288.80      85.26       288.80      228.29      
289.00      84.88       289.10      227.95      
289.20      84.50       289.20      228.01      
289.40      84.12       289.42      228.06      
289.60      83.36       289.59      227.81      
289.80      83.93       289.74      227.56      
290.00      84.50       290.03      226.11      
290.20      85.07       290.20      224.92      
290.40      85.65       290.39      223.72      
290.60      84.88       290.64      221.15      
290.80      85.26       290.80      220.36      
291.00      85.65       290.96      219.58      
291.20      87.93       291.20      219.42      
291.40      87.93       291.40      219.86      
291.60      87.93       291.58      220.29      
291.80      87.93       291.78      221.41      
292.00      80.31       292.00      222.19      
292.20      91.74       292.18      222.97      
292.40      89.46       292.35      218.67      
292.60      83.10       292.51      201.20      
292.80      76.75       292.80      7.52        
293.00      70.40       292.97      22.85       
293.20      69.63       293.18      43.19       
293.40      74.97       293.32      76.09       
293.60      80.31       293.62      108.52      
293.80      87.93       293.79      132.47      
294.00      92.13       294.03      148.56      
294.20      96.32       294.29      162.12      
294.40      98.61       294.36      167.60      
294.60      100.13      294.62      173.07      
294.80      102.42      294.85      182.36      
295.00      101.47      295.00      186.20      
295.20      100.51      295.13      190.05      
295.40      99.56       295.41      197.02      
295.60      98.61       295.70      199.88      
295.80      99.75       295.72      202.74      
296.00      100.89      296.00      207.01      
296.20      101.08      296.28      209.03      
296.40      101.28      296.40      209.11      
296.60      101.47      296.58      209.18      
296.80      101.66      296.80      208.91      
297.00      103.18      297.08      209.60      
297.20      102.80      297.18      210.28      
297.40      102.42      297.37      212.57      
297.60      99.37       297.66      213.82      
297.80      99.12       297.79      215.07      
298.00      98.86       298.10      217.28      
298.20      98.61       298.23      218.93      
298.40      99.62       298.44      220.58      
298.60      100.64      298.60      222.45      
298.80      101.66      298.81      224.32      
299.00      103.18      299.05      227.14      
299.20      105.01      299.20      227.58      
299.40      106.84      299.38      228.01      
299.60      108.67      299.69      227.72      
299.80      110.50      299.80      226.84      
300.00      112.33      299.99      225.96      
300.20      116.14      300.24      224.96      
300.40      116.14      300.31      223.96      
300.60      116.14      300.60      222.29      
300.80      119.19      300.81      222.56      
301.00      118.69      300.94      222.82      
301.20      118.18      301.23      224.10      
301.40      117.67      301.39      223.29      
301.60      114.62      301.60      210.60      
301.80      111.57      301.85      144.23      
302.00      108.52      301.98      112.46      
302.20      105.22      302.24      90.86       
302.40      101.91      302.45      93.22       
302.60      98.61       302.54      103.89      
302.80      93.27       302.80      114.25      
303.00      87.93       302.93      124.62      
303.20      88.70       303.18      149.03      
303.40      89.46       303.40      167.19      
303.60      91.74       303.68      177.60      
303.80      92.89       303.80      180.37      
304.00      94.03       303.98      183.13      
304.20      101.66      304.23      187.97      
304.40      105.09      304.40      189.24      
304.60      108.52      304.54      190.51      
304.80      107.76      304.79      192.23      
305.00      106.99      305.08      194.13      
305.20      106.23      305.20      196.61      
305.40      105.47      305.38      199.08      
305.60      105.85      305.60      6.89        
305.80      106.23      305.86      54.36       
306.00      96.32       306.05      77.49       
306.20      96.51       306.21      85.30       
306.40      96.70       306.38      92.72       
306.60      96.89       306.56      97.31       
306.80      97.08       306.77      110.54      
307.00      98.23       306.98      124.90      
307.20      99.37       307.21      137.71      
307.40      103.18      307.45      149.09      
307.60      102.93      307.70      158.67      
307.80      102.67      307.80      162.93      
308.00      102.42      308.00      167.18      
308.20      102.42      308.21      174.41      
308.40      102.42      308.48      180.40      
308.60      102.42      308.53      182.73      
308.80      102.04      308.75      185.05      
309.00      101.66      309.02      188.76      
309.20      101.66      309.29      192.16      
309.40      101.66      309.40      193.35      
309.60      101.66      309.56      194.54      
309.80      100.51      309.84      195.58      
310.00      99.37       309.96      195.47      
310.20      99.37       310.23      195.36      
