~VERSION INFORMATION
VERS.                   2.0                              : CWLS LOG ASCII STANDARD - VERSION 2.0
WRAP.                   NO                               : ONE LINE PER DEPTH STEP
PHXV.                   1.8.1.1                          : PhoenixLAS Generator Version
VDAT.                   03/27/2019 09:05:43              : PhoenixLAS Build Date
~WELL INFORMATION
#MNEM.UNIT              DATA                             DESCRIPTION
#----- -----            ----------                       -----------------------
STRT    .M              212.00                           : START DEPTH
STOP    .M              1234.00                          : STOP DEPTH
STEP    .M              0.20                             : STEP
NULL    .               -999.25                          : NULL VALUE
WELL    .               CARDINAL 102 MHZ ALDERSON 3-36-17-11 W4M : Well Name
RIG     .               Bonanza-7                        : Rig Name
COMP    .               Cardinal Energy Ltd.             : Client Name
CTRY    .               CA                               : Country
LOC     .               03-01-018-11 W4                  : Surface Location
PROV    .               AB                               : Province
UWI     .               102/03-36-017-11W3/00            : Unique Well ID
DATE    .               11/01/2022 19:56:49              : Date
RIGTYPE .               Super Single                     : Rig Type
LICENSE .               0505900                          : WellLicence Number
SRVC    .               Phoenix Technology Service       : Service Company
FLD     .                                                : Field
~CURVE INFORMATION
#MNEM.UNIT              API CODES                        CURVE DESCRIPTION
#----- -----            ----------                       -----------------------
DEPT    .M              001                              : DEPTH
MG1C    .API                                             : Gamma Ray (Corrected)
DVER    .M              960                              : Hole TVD
ROPA    .M/HR                                            : Rate of Penetration
~OTHER
DRAFT
~A DEPT     MG1C        DVER        ROPA        
# ...
868.00      112.33      832.12      205.27      
868.20      110.04      832.19      206.91      
868.40      107.76      832.35      211.24      
868.60      108.52      832.49      213.14      
868.80      109.28      832.62      215.05      
869.00      108.52      832.77      217.40      
869.20      94.79       832.91      214.25      
869.40      98.61       833.05      25.36       
869.60      100.13      833.19      59.35       
869.80      103.18      833.33      61.11       
870.00      103.94      833.49      66.56       
870.20      103.94      833.62      69.03       
870.40      104.71      833.77      71.57       
870.60      107.76      833.88      75.04       
870.80      106.99      834.05      75.86       
871.00      106.99      834.14      76.86       
871.20      105.47      834.28      76.12       
871.40      101.66      834.42      73.04       
871.60      102.42      834.59      73.57       
871.80      107.76      834.73      78.02       
872.00      110.04      834.88      77.92       
872.20      111.57      835.03      77.78       
872.40      113.09      835.18      78.77       
872.60      107.38      835.26      78.95       
872.80      101.66      835.42      80.64       
873.00      103.94      835.55      82.12       
873.20      99.37       835.71      77.74       
873.40      96.32       835.86      72.55       
873.60      99.37       835.95      74.83       
873.80      101.66      836.11      77.34       
874.00      105.72      836.25      7.03        
874.20      109.79      836.45      33.31       
874.40      113.86      836.58      61.24       
874.60      115.89      836.74      96.05       
874.80      117.92      836.81      110.83      
875.00      119.96      836.91      125.60      
875.20      122.24      837.09      147.19      
875.40      123.01      837.29      165.65      
875.60      123.77      837.32      173.79      
875.80      122.24      837.48      181.93      
876.00      121.10      837.63      189.25      
876.20      119.96      837.74      196.57      
876.40      119.19      837.94      209.21      
876.60      119.70      838.04      214.60      
876.80      120.21      838.17      219.98      
877.00      120.72      838.32      224.46      
877.20      121.23      838.40      228.93      
877.40      121.73      838.64      235.88      
877.60      122.24      838.71      238.74      
877.80      120.72      838.87      241.60      
878.00      119.19      838.94      244.06      
878.20      119.19      839.10      246.53      
878.40      119.19      839.28      248.38      
878.60      119.19      839.38      250.22      
878.80      119.96      839.60      252.34      
879.00      120.72      839.63      252.58      
879.20      119.19      839.84      252.81      
879.40      118.43      839.96      252.75      
879.60      117.67      840.08      252.69      
879.80      115.38      840.30      251.87      
880.00      115.00      840.37      251.25      
880.20      114.62      840.53      250.63      
880.40      114.24      840.64      249.96      
880.60      113.86      840.77      249.28      
880.80      115.38      840.97      249.27      
881.00      115.00      841.02      249.25      
881.20      114.62      841.19      249.86      
881.40      114.24      841.26      250.46      
881.60      113.86      841.42      251.37      
881.80      115.38      841.66      251.06      
882.00      115.76      841.72      250.75      
882.20      116.14      841.83      249.88      
882.40      116.14      842.01      249.01      
882.60      106.99      842.14      228.32      
882.80      109.28      842.28      27.05       
883.00      111.57      842.40      56.24       
883.20      111.57      842.55      66.06       
883.40      113.86      842.68      69.03       
883.60      113.09      842.82      74.09       
883.80      114.62      842.97      79.36       
884.00      114.62      843.05      80.95       
884.20      111.57      843.22      81.84       
884.40      111.57      843.36      82.07       
884.60      110.04      843.51      82.80       
884.80      108.52      843.60      81.55       
885.00      103.94      843.76      80.51       
885.20      98.61       843.88      79.93       
885.40      93.27       844.04      81.52       
885.60      96.32       844.12      82.90       
885.80      99.37       844.29      86.41       
886.00      100.89      844.39      88.83       
886.20      102.42      844.57      95.15       
886.40      97.84       844.71      14.62       
886.60      101.66      844.82      28.10       
886.80      94.79       844.94      53.10       
887.00      92.51       845.06      84.86       
887.20      91.74       845.22      112.56      
887.40      92.51       845.36      130.45      
887.60      106.23      845.52      144.10      
887.80      112.33      845.63      150.32      
888.00      118.43      845.70      156.53      
888.20      126.06      845.89      171.10      
888.40      126.31      846.03      179.64      
888.60      126.56      846.12      188.19      
888.80      126.82      846.33      206.26      
889.00      123.77      846.43      212.44      
889.20      123.77      846.60      218.62      
889.40      122.24      846.74      222.55      
889.60      120.72      846.78      221.15      
889.80      113.48      846.92      219.74      
890.00      106.23      847.11      218.51      
890.20      107.76      847.27      220.14      
890.40      106.74      847.37      221.77      
890.60      105.72      847.49      225.94      
890.80      104.71      847.63      230.11      
891.00      103.18      847.77      235.69      
891.20      103.94      847.86      241.28      
891.40      103.18      848.09      250.56      
891.60      102.42      848.14      252.12      
891.80      97.08       848.29      253.68      
892.00      97.08       848.42      251.14      
892.20      97.08       848.51      248.61      
892.40      97.08       848.70      245.86      
892.60      96.83       848.75      243.11      
892.80      96.57       848.97      240.70      
893.00      96.32       849.03      241.71      
893.20      95.56       849.20      242.71      
893.40      99.37       849.37      243.44      
893.60      104.71      849.52      242.71      
893.80      105.47      849.61      241.97      
894.00      106.23      849.69      240.66      
894.20      107.76      849.85      239.34      
894.40      108.90      850.04      237.67      
894.60      110.04      850.13      238.14      
894.80      111.19      850.26      238.61      
895.00      112.33      850.34      239.55      
895.20      113.09      850.52      240.49      
895.40      106.74      850.70      242.46      
895.60      100.39      850.78      240.65      
895.80      94.03       850.95      238.83      
896.00      100.89      851.04      229.29      
896.20      102.42      851.15      19.30       
896.40      102.42      851.30      54.82       
896.60      103.18      851.45      54.09       
896.80      102.42      851.56      56.93       
897.00      103.18      851.69      62.34       
897.20      103.94      851.82      69.78       
897.40      110.04      851.95      75.26       
897.60      110.04      852.12      79.62       
897.80      113.86      852.22      81.84       
898.00      113.86      852.36      85.58       
898.20      110.81      852.50      85.87       
898.40      92.51       852.63      85.02       
898.60      82.60       852.73      82.35       
898.80      83.36       852.87      80.25       
899.00      81.83       853.00      78.57       
899.20      87.55       853.15      77.85       
899.40      93.27       853.27      79.11       
899.60      99.37       853.37      82.89       
899.80      106.23      853.51      80.84       
900.00      104.71      853.64      75.62       
900.20      77.26       853.76      75.30       
900.40      78.78       853.92      78.13       
900.60      78.78       854.00      79.45       
