~VERSION INFORMATION
VERS.                   2.0                              : CWLS LOG ASCII STANDARD - VERSION 2.0
WRAP.                   NO                               : ONE LINE PER DEPTH STEP
PHXV.                   1.8.1.1                          : PhoenixLAS Generator Version
VDAT.                   03/27/2019 09:05:43              : PhoenixLAS Build Date
~WELL INFORMATION
#MNEM.UNIT              DATA                             DESCRIPTION
#----- -----            ----------                       -----------------------
STRT    .M              212.00                           : START DEPTH
STOP    .M              1234.00                          : STOP DEPTH
STEP    .M              0.20                             : STEP
NULL    .               -999.25                          : NULL VALUE
WELL    .               CARDINAL 102 MHZ ALDERSON 3-36-17-11 W4M : Well Name
RIG     .               Bonanza-7                        : Rig Name
COMP    .               Cardinal Energy Ltd.             : Client Name
CTRY    .               CA                               : Country
LOC     .               03-01-018-11 W4                  : Surface Location
PROV    .               AB                               : Province
UWI     .               102/03-36-017-11W3/00            : Unique Well ID
DATE    .               11/01/2022 19:56:49              : Date
RIGTYPE .               Super Single                     : Rig Type
LICENSE .               0505900                          : WellLicence Number
SRVC    .               Phoenix Technology Service       : Service Company
FLD     .                                                : Field
~CURVE INFORMATION
#MNEM.UNIT              API CODES                        CURVE DESCRIPTION
#----- -----            ----------                       -----------------------
DEPT    .M              001                              : DEPTH
MG1C    .API                                             : Gamma Ray (Corrected)
DVER    .M              960                              : Hole TVD
ROPA    .M/HR                                            : Rate of Penetration
~OTHER
DRAFT
~A DEPT     MG1C        DVER        ROPA        
# ...
605.60      133.30      605.20      141.95      
605.80      133.68      605.43      154.07      
606.00      136.73      605.63      159.81      
606.20      135.97      605.83      156.59      
606.40      135.97      606.04      136.51      
606.60      138.26      606.24      132.58      
606.80      140.54      606.46      130.74      
607.00      142.83      606.64      128.24      
607.20      141.69      606.80      124.28      
607.40      140.54      607.06      121.53      
607.60      145.12      607.26      122.11      
607.80      147.41      607.46      122.86      
608.00      148.93      607.65      123.21      
608.20      143.59      607.82      123.83      
608.40      146.64      608.01      125.14      
608.60      145.12      608.16      126.52      
608.80      143.59      608.34      127.26      
609.00      142.07      608.68      125.54      
609.20      142.07      608.86      124.23      
609.40      142.07      609.01      123.60      
609.60      138.26      609.20      123.18      
609.80      136.73      609.37      123.16      
610.00      139.02      609.54      122.81      
610.20      139.02      609.86      123.06      
610.40      137.49      610.03      125.06      
610.60      136.73      610.18      128.94      
610.80      136.35      610.48      134.79      
611.00      135.97      610.55      141.71      
611.20      136.73      610.77      144.82      
611.40      139.02      610.99      147.92      
611.60      138.26      611.23      152.90      
611.80      139.40      611.35      156.55      
612.00      140.54      611.57      159.74      
612.20      141.81      611.80      161.87      
612.40      143.08      612.03      163.14      
612.60      144.36      612.12      163.52      
612.80      141.31      612.40      4.63        
613.00      139.02      612.54      37.35       
613.20      139.02      612.79      64.45       
613.40      137.49      612.94      71.99       
613.60      132.92      613.14      74.63       
613.80      137.49      613.36      74.39       
614.00      142.07      613.51      74.35       
614.20      142.07      613.76      75.81       
614.40      139.78      613.95      79.03       
614.60      135.21      614.18      82.63       
614.80      131.39      614.35      84.36       
615.00      129.11      614.53      87.19       
615.20      130.63      614.72      88.13       
615.40      132.16      614.93      90.00       
615.60      132.16      615.18      92.18       
615.80      135.21      615.32      92.93       
616.00      135.21      615.51      93.69       
616.20      138.25      615.70      93.87       
616.40      141.31      615.90      93.67       
616.60      139.78      616.07      92.55       
616.80      139.02      616.31      1.37        
617.00      145.88      616.51      19.91       
617.20      143.59      616.64      36.17       
617.40      150.46      616.92      76.72       
617.60      135.97      617.11      98.12       
617.80      138.26      617.32      117.55      
618.00      132.92      617.46      132.45      
618.20      133.68      617.62      140.96      
618.40      136.73      617.95      143.89      
618.60      136.22      618.14      142.39      
618.80      135.71      618.31      138.88      
619.00      135.21      618.49      135.52      
619.20      138.26      618.66      132.82      
619.40      135.97      618.84      130.88      
619.60      133.68      619.05      130.49      
619.80      132.92      619.24      132.68      
620.00      132.54      619.45      137.49      
620.20      132.16      619.65      142.96      
620.40      131.39      619.85      146.93      
620.60      128.34      620.05      148.71      
620.80      127.20      620.27      149.21      
621.00      126.06      620.46      149.45      
621.20      126.82      620.67      149.45      
621.40      124.15      620.87      148.79      
621.60      121.48      621.08      148.58      
621.80      120.72      621.31      149.78      
622.00      118.43      621.51      152.61      
622.20      118.43      621.71      153.92      
622.40      118.43      621.75      152.62      
622.60      118.43      621.97      148.93      
622.80      124.91      622.22      148.18      
623.00      131.39      622.42      147.43      
623.20      123.77      622.60      141.72      
623.40      118.43      622.77      130.19      
623.60      113.09      623.06      112.89      
623.80      108.90      623.26      102.57      
624.00      104.71      623.43      91.25       
624.20      94.03       623.57      88.52       
624.40      91.74       623.81      96.96       
624.60      96.32       623.95      110.57      
624.80      104.52      624.16      122.57      
625.00      112.71      624.38      134.72      
625.20      120.91      624.62      145.06      
625.40      129.11      624.72      157.62      
625.60      145.12      624.93      162.41      
625.80      161.89      625.11      167.20      
626.00      178.67      625.40      89.02       
626.20      212.98      625.57      10.83       
626.40      244.24      625.79      33.12       
626.60      270.16      625.92      54.29       
626.80      268.64      626.11      91.79       
627.00      233.56      626.33      93.80       
627.20      174.85      626.54      25.42       
627.40      148.17      626.74      48.19       
627.60      121.48      626.96      56.11       
627.80      116.14      627.14      57.53       
628.00      110.04      627.36      58.11       
628.20      117.67      627.56      57.69       
628.40      123.01      627.73      64.25       
628.60      125.29      627.91      67.12       
628.80      119.96      628.10      66.89       
629.00      125.29      628.29      68.25       
629.20      129.87      628.49      68.98       
629.40      125.29      628.68      70.43       
629.60      124.53      628.88      72.52       
629.80      120.72      629.08      73.07       
630.00      126.06      629.27      72.48       
630.20      126.82      629.47      72.38       
630.40      127.58      629.68      73.41       
630.60      121.48      629.88      74.76       
630.80      118.43      630.08      75.22       
631.00      116.91      630.29      74.47       
631.20      118.43      630.48      0.68        
631.40      132.92      630.69      21.64       
631.60      134.44      630.83      38.86       
631.80      132.92      631.07      60.15       
632.00      119.19      631.25      102.55      
632.20      115.38      631.46      111.38      
632.40      113.86      631.56      120.21      
632.60      112.33      631.77      133.95      
632.80      118.43      631.99      143.45      
633.00      122.24      632.22      150.94      
633.20      126.06      632.45      157.51      
633.40      129.87      632.56      164.71      
633.60      136.73      632.79      168.01      
633.80      139.78      633.01      171.30      
634.00      142.07      633.24      175.87      
634.20      142.83      633.42      177.53      
634.40      140.16      633.66      177.34      
634.60      137.49      633.85      175.67      
634.80      136.73      634.04      171.99      
635.00      137.87      634.27      164.12      
635.20      139.02      634.45      154.69      
635.40      134.44      634.65      146.62      
635.60      136.73      634.85      144.47      
635.80      137.49      635.05      145.81      
636.00      132.16      635.26      147.14      
636.20      129.11      635.31      152.79      
636.40      126.06      635.54      157.63      
636.60      125.67      635.77      160.81      
636.80      125.29      635.99      162.57      
637.00      124.91      636.22      164.44      
637.20      124.53      636.34      165.53      
637.40      125.29      636.57      165.65      
637.60      124.53      636.76      165.77      
637.80      126.06      636.95      165.79      
638.00      128.34      637.15      167.49      
638.20      127.33      637.38      170.81      
